[
  {
    "id": "bccc4b85-685d-4909-9939-498d2528c908",
    "name": "Midnight Lightning",
    "type": "BOULDER",
    "difficulty": "V8",
    "latitude": 37.74172,
    "longitude": -119.60355,
    "website": "https://www.mountainproject.com/route/105835104/midnight-lightning",
    "createdAt": "2025-04-01T06:21:36.834Z",
    "updatedAt": "2025-04-01T06:21:36.834Z"
  },
  {
    "id": "2a936fc8-3318-4679-9526-7c73f13617c7",
    "name": "White Rastafarian",
    "type": "BOULDER",
    "difficulty": "V2",
    "latitude": 34.02066,
    "longitude": -116.16208,
    "website": "https://www.mountainproject.com/route/105722593/white-rastafarian",
    "createdAt": "2025-04-01T06:21:38.077Z",
    "updatedAt": "2025-04-01T06:21:38.077Z"
  },
  {
    "id": "7290dfdd-4ecd-4b4e-83f2-de306645dc52",
    "name": "High Plains Drifter",
    "type": "BOULDER",
    "difficulty": "V7",
    "latitude": 37.32888,
    "longitude": -118.57484,
    "website": "https://www.mountainproject.com/route/105908128/high-plains-drifter",
    "createdAt": "2025-04-01T06:21:40.160Z",
    "updatedAt": "2025-04-01T06:21:40.160Z"
  },
  {
    "id": "2d82fb6b-4df9-47c0-8b45-8558cdbf7d7c",
    "name": "Bachar Cracker",
    "type": "BOULDER",
    "difficulty": "V4",
    "latitude": 37.74317,
    "longitude": -119.60292,
    "website": "https://www.mountainproject.com/route/107094498/bachar-cracker",
    "createdAt": "2025-04-01T06:21:42.196Z",
    "updatedAt": "2025-04-01T06:21:42.196Z"
  },
  {
    "id": "f102bc97-dc33-42bd-aee6-cfdf2f165243",
    "name": "Little Devil",
    "type": "BOULDER",
    "difficulty": "5.15d",
    "latitude": 39.31677,
    "longitude": -104.73933,
    "website": "https://www.mountainproject.com/route/105758724/little-devil",
    "createdAt": "2025-04-01T06:21:43.898Z",
    "updatedAt": "2025-04-01T06:21:43.898Z"
  },
  {
    "id": "868a99ba-731b-484e-a3b3-474b3b293084",
    "name": "The Ruckus (aka Seven Spani…",
    "type": "BOULDER",
    "difficulty": "V6",
    "latitude": 37.3388,
    "longitude": -118.5776,
    "website": "https://www.mountainproject.com/route/106070976/the-ruckus-aka-seven-spanish-angels",
    "createdAt": "2025-04-01T06:21:45.640Z",
    "updatedAt": "2025-04-01T06:21:45.640Z"
  },
  {
    "id": "9ceaad51-912d-43a5-8446-3fdab7c85625",
    "name": "Kobra Khan",
    "type": "BOULDER",
    "difficulty": "V4",
    "latitude": 39.2719,
    "longitude": -111.19439,
    "website": "https://www.mountainproject.com/route/113748359/kobra-khan",
    "createdAt": "2025-04-01T06:21:47.731Z",
    "updatedAt": "2025-04-01T06:21:47.731Z"
  },
  {
    "id": "7c958c53-4c64-4501-93c1-a9608f39ea1e",
    "name": "Jedi Mind Tricks",
    "type": "BOULDER",
    "difficulty": "V4",
    "latitude": 37.3366,
    "longitude": -118.5703,
    "website": "https://www.mountainproject.com/route/106464345/jedi-mind-tricks",
    "createdAt": "2025-04-01T06:21:49.810Z",
    "updatedAt": "2025-04-01T06:21:49.810Z"
  },
  {
    "id": "a3809d4c-cb8e-4958-aa39-492c41e3c2dc",
    "name": "Pimpsqueak",
    "type": "BOULDER",
    "difficulty": "V8",
    "latitude": 47.54266,
    "longitude": -120.72102,
    "website": "https://www.mountainproject.com/route/106577306/pimpsqueak",
    "createdAt": "2025-04-01T06:21:51.752Z",
    "updatedAt": "2025-04-01T06:21:51.752Z"
  },
  {
    "id": "b2d45969-3f2c-4525-9685-ca8bbc867c62",
    "name": "Slashface",
    "type": "BOULDER",
    "difficulty": "V3",
    "latitude": 33.95344,
    "longitude": -116.08706,
    "website": "https://www.mountainproject.com/route/105722755/slashface",
    "createdAt": "2025-04-01T06:21:54.199Z",
    "updatedAt": "2025-04-01T06:21:54.199Z"
  },
  {
    "id": "5a5b1e59-8109-46a0-a73f-4c0f045d06de",
    "name": "Moonshine Roof (center)",
    "type": "BOULDER",
    "difficulty": "V4",
    "latitude": 31.9171,
    "longitude": -106.0391,
    "website": "https://www.mountainproject.com/route/106385730/moonshine-roof-center",
    "createdAt": "2025-04-01T06:21:55.803Z",
    "updatedAt": "2025-04-01T06:21:55.803Z"
  },
  {
    "id": "58756414-ecac-4b63-9342-a70af44e026a",
    "name": "Natasha's Highball",
    "type": "BOULDER",
    "difficulty": "V2",
    "latitude": 36.03624,
    "longitude": -115.46338,
    "website": "https://www.mountainproject.com/route/111477313/natashas-highball",
    "createdAt": "2025-04-01T06:21:56.943Z",
    "updatedAt": "2025-04-01T06:21:56.943Z"
  },
  {
    "id": "569d387a-e86c-49e0-acd4-2466e745ed62",
    "name": "Pigpen",
    "type": "BOULDER",
    "difficulty": "V4",
    "latitude": 34.0153,
    "longitude": -116.15811,
    "website": "https://www.mountainproject.com/route/105722992/pigpen",
    "createdAt": "2025-04-01T06:21:58.169Z",
    "updatedAt": "2025-04-01T06:21:58.169Z"
  },
  {
    "id": "a5fe8066-dcc5-4e00-a004-bf185f7b0883",
    "name": "Golden Shower",
    "type": "BOULDER",
    "difficulty": "V5",
    "latitude": 34.65121,
    "longitude": -85.39099,
    "website": "https://www.mountainproject.com/route/106403724/golden-shower",
    "createdAt": "2025-04-01T06:22:00.152Z",
    "updatedAt": "2025-04-01T06:22:00.152Z"
  },
  {
    "id": "c39e0d82-c9ca-453a-8e70-4619ba8546e4",
    "name": "See Spot Run",
    "type": "BOULDER",
    "difficulty": "V6",
    "latitude": 31.9222,
    "longitude": -106.0434,
    "website": "https://www.mountainproject.com/route/106104818/see-spot-run",
    "createdAt": "2025-04-01T06:22:02.240Z",
    "updatedAt": "2025-04-01T06:22:02.240Z"
  },
  {
    "id": "492694dd-0335-4ec7-a36e-b6100a8571a7",
    "name": "JBMFP",
    "type": "BOULDER",
    "difficulty": "V5",
    "latitude": 34.0152,
    "longitude": -116.16631,
    "website": "https://www.mountainproject.com/route/105725464/jbmfp",
    "createdAt": "2025-04-01T06:22:03.976Z",
    "updatedAt": "2025-04-01T06:22:03.976Z"
  },
  {
    "id": "82b09135-7476-4344-820c-0e154be6ceb1",
    "name": "Tommy's Arete",
    "type": "BOULDER",
    "difficulty": "V7",
    "latitude": 40.30479,
    "longitude": -105.66069,
    "website": "https://www.mountainproject.com/route/106390524/tommys-arete",
    "createdAt": "2025-04-01T06:22:05.682Z",
    "updatedAt": "2025-04-01T06:22:05.682Z"
  },
  {
    "id": "4871ebf9-3384-4c52-859c-b90b75d307d2",
    "name": "Storming the Castle PG13",
    "type": "BOULDER",
    "difficulty": "V2",
    "latitude": 35.24932,
    "longitude": -85.22067,
    "website": "https://www.mountainproject.com/route/107046859/storming-the-castle-pg13",
    "createdAt": "2025-04-01T06:22:06.282Z",
    "updatedAt": "2025-04-01T06:22:06.282Z"
  },
  {
    "id": "8b2c5c1b-d6fa-4b92-8c80-10b99a5b4848",
    "name": "Wills Of Fire",
    "type": "BOULDER",
    "difficulty": "V6",
    "latitude": 39.27583,
    "longitude": -111.22354,
    "website": "https://www.mountainproject.com/route/105880494/wills-of-fire",
    "createdAt": "2025-04-01T06:22:07.478Z",
    "updatedAt": "2025-04-01T06:22:07.478Z"
  },
  {
    "id": "788f8f08-2e78-4e31-9dce-7b8d08732455",
    "name": "Nobody Here Gets Out Alive",
    "type": "BOULDER",
    "difficulty": "V2",
    "latitude": 31.9221,
    "longitude": -106.0438,
    "website": "https://www.mountainproject.com/route/105811221/nobody-here-gets-out-alive",
    "createdAt": "2025-04-01T06:22:09.315Z",
    "updatedAt": "2025-04-01T06:22:09.315Z"
  },
  {
    "id": "d5709f9f-48c8-4ace-ac33-1105518d8664",
    "name": "Breashear's Crack II",
    "type": "BOULDER",
    "difficulty": "V3",
    "latitude": 39.65112,
    "longitude": -105.18653,
    "website": "https://www.mountainproject.com/route/105755113/breashears-crack-ii",
    "createdAt": "2025-04-01T06:22:11.801Z",
    "updatedAt": "2025-04-01T06:22:11.801Z"
  },
  {
    "id": "054b0dad-ed28-4e8f-8c92-54c1c2d0b9bb",
    "name": "Saigon",
    "type": "BOULDER",
    "difficulty": "V6",
    "latitude": 37.32944,
    "longitude": -118.57548,
    "website": "https://www.mountainproject.com/route/106022301/saigon",
    "createdAt": "2025-04-01T06:22:13.490Z",
    "updatedAt": "2025-04-01T06:22:13.490Z"
  },
  {
    "id": "6177c2bf-7c5f-47f2-bfce-20f23a8a7e3c",
    "name": "The Flu",
    "type": "BOULDER",
    "difficulty": "V7-8",
    "latitude": 39.30035,
    "longitude": -111.17682,
    "website": "https://www.mountainproject.com/route/112318328/the-flu",
    "createdAt": "2025-04-01T06:22:16.062Z",
    "updatedAt": "2025-04-01T06:22:16.062Z"
  },
  {
    "id": "9c108ccb-e7a1-484e-9147-fd22219f7576",
    "name": "The Wave",
    "type": "BOULDER",
    "difficulty": "V6",
    "latitude": 35.24899,
    "longitude": -85.22,
    "website": "https://www.mountainproject.com/route/106032561/the-wave",
    "createdAt": "2025-04-01T06:22:18.323Z",
    "updatedAt": "2025-04-01T06:22:18.323Z"
  },
  {
    "id": "2dae0a8f-1685-432c-967c-73ba5cbf75f0",
    "name": "Leave It to Beaver",
    "type": "BOULDER",
    "difficulty": "V8",
    "latitude": 43.12384,
    "longitude": -71.18708,
    "website": "https://www.mountainproject.com/route/106724657/leave-it-to-beaver",
    "createdAt": "2025-04-01T06:22:19.583Z",
    "updatedAt": "2025-04-01T06:22:19.583Z"
  },
  {
    "id": "2a1c1c29-dfa2-4c08-8825-f0baf0df1190",
    "name": "Big Bud Arete",
    "type": "BOULDER",
    "difficulty": "V2",
    "latitude": 43.42737,
    "longitude": -89.72676,
    "website": "https://www.mountainproject.com/route/106413750/big-bud-arete",
    "createdAt": "2025-04-01T06:22:21.466Z",
    "updatedAt": "2025-04-01T06:22:21.466Z"
  },
  {
    "id": "b35cd0ce-fb8c-4597-bb06-d600256ace2a",
    "name": "Gription",
    "type": "BOULDER",
    "difficulty": "V9",
    "latitude": 37.06753,
    "longitude": -113.63276,
    "website": "https://www.mountainproject.com/route/107884306/gription",
    "createdAt": "2025-04-01T06:22:24.185Z",
    "updatedAt": "2025-04-01T06:22:24.185Z"
  },
  {
    "id": "b2c161f6-a542-4323-ac60-58ca6883956d",
    "name": "Strength in Numbers (Origin…",
    "type": "BOULDER",
    "difficulty": "V5",
    "latitude": 37.42207,
    "longitude": -118.43344,
    "website": "https://www.mountainproject.com/route/106068943/strength-in-numbers-original-sin",
    "createdAt": "2025-04-01T06:22:25.888Z",
    "updatedAt": "2025-04-01T06:22:25.888Z"
  },
  {
    "id": "625ad651-d31f-4c78-8b19-c0bf8b5b7597",
    "name": "Tennessee Thong",
    "type": "BOULDER",
    "difficulty": "V7",
    "latitude": 35.24895,
    "longitude": -85.22077,
    "website": "https://www.mountainproject.com/route/107950727/tennessee-thong",
    "createdAt": "2025-04-01T06:22:27.225Z",
    "updatedAt": "2025-04-01T06:22:27.225Z"
  },
  {
    "id": "81739c98-6202-442c-9195-eca034c7da75",
    "name": "Planet of the Apes",
    "type": "BOULDER",
    "difficulty": "V7",
    "latitude": 39.30838,
    "longitude": -111.11474,
    "website": "https://www.mountainproject.com/route/106318953/planet-of-the-apes",
    "createdAt": "2025-04-01T06:22:28.729Z",
    "updatedAt": "2025-04-01T06:22:28.729Z"
  },
  {
    "id": "7c5084f8-3d1f-4601-a6cb-9b40aa9d9360",
    "name": "Celestial Mechanics",
    "type": "BOULDER",
    "difficulty": "V7",
    "latitude": 35.25038,
    "longitude": -85.21762,
    "website": "https://www.mountainproject.com/route/107333483/celestial-mechanics",
    "createdAt": "2025-04-01T06:22:30.857Z",
    "updatedAt": "2025-04-01T06:22:30.857Z"
  },
  {
    "id": "18cb63c1-613b-4d64-bf89-d828246d45b6",
    "name": "Dragon Fly, AKA: Dogmatics",
    "type": "BOULDER",
    "difficulty": "V5",
    "latitude": 31.9171,
    "longitude": -106.0391,
    "website": "https://www.mountainproject.com/route/105812856/dragon-fly-aka-dogmatics",
    "createdAt": "2025-04-01T06:22:32.004Z",
    "updatedAt": "2025-04-01T06:22:32.004Z"
  },
  {
    "id": "d9b2f9c2-3164-4a64-b7d5-b9217307064a",
    "name": "Vino Rojo",
    "type": "BOULDER",
    "difficulty": "V6",
    "latitude": 36.15988,
    "longitude": -115.41296,
    "website": "https://www.mountainproject.com/route/106964471/vino-rojo",
    "createdAt": "2025-04-01T06:22:33.793Z",
    "updatedAt": "2025-04-01T06:22:33.793Z"
  },
  {
    "id": "ef814069-ab4d-4f4a-b648-de5c055394f7",
    "name": "The Big Baby",
    "type": "BOULDER",
    "difficulty": "5.11",
    "latitude": 38.03837,
    "longitude": -109.54917,
    "website": "https://www.mountainproject.com/route/105867934/the-big-baby",
    "createdAt": "2025-04-01T06:22:35.174Z",
    "updatedAt": "2025-04-01T06:22:35.174Z"
  },
  {
    "id": "d9d5429e-1b0e-48a0-9c4b-aea85cb800eb",
    "name": "Emerald City",
    "type": "BOULDER",
    "difficulty": "V0",
    "latitude": 33.81759,
    "longitude": -116.64934,
    "website": "https://www.mountainproject.com/route/107176656/emerald-city",
    "createdAt": "2025-04-01T06:22:38.011Z",
    "updatedAt": "2025-04-01T06:22:38.011Z"
  },
  {
    "id": "bdd5f65c-a57b-44d0-9754-61a30875cf29",
    "name": "Ride the Lightning",
    "type": "BOULDER",
    "difficulty": "V6",
    "latitude": 43.11908,
    "longitude": -71.18286,
    "website": "https://www.mountainproject.com/route/105945043/ride-the-lightning",
    "createdAt": "2025-04-01T06:22:40.103Z",
    "updatedAt": "2025-04-01T06:22:40.103Z"
  },
  {
    "id": "b09a8c93-934b-4163-89ff-6bb9822ded59",
    "name": "Israil",
    "type": "BOULDER",
    "difficulty": "V6",
    "latitude": 37.06494,
    "longitude": -113.63155,
    "website": "https://www.mountainproject.com/route/106707592/israil",
    "createdAt": "2025-04-01T06:22:41.512Z",
    "updatedAt": "2025-04-01T06:22:41.512Z"
  },
  {
    "id": "8499fd96-0464-43fa-99b0-5e7f2f64de19",
    "name": "Yosemite Slab",
    "type": "BOULDER",
    "difficulty": "V0",
    "latitude": 37.50632,
    "longitude": -88.68419,
    "website": "https://www.mountainproject.com/route/109933221/yosemite-slab",
    "createdAt": "2025-04-01T06:22:43.166Z",
    "updatedAt": "2025-04-01T06:22:43.166Z"
  },
  {
    "id": "3030dc21-fc1b-48b8-b5b8-da90d8ccf03a",
    "name": "Flyboy SDS",
    "type": "BOULDER",
    "difficulty": "V8-",
    "latitude": 37.33057,
    "longitude": -118.57834,
    "website": "https://www.mountainproject.com/route/106070940/flyboy-sds",
    "createdAt": "2025-04-01T06:22:44.572Z",
    "updatedAt": "2025-04-01T06:22:44.572Z"
  },
  {
    "id": "2d48e4e2-3f98-42a8-8749-317e1cc544a9",
    "name": "Low Tide",
    "type": "BOULDER",
    "difficulty": "V6",
    "latitude": 39.27864,
    "longitude": -111.22785,
    "website": "https://www.mountainproject.com/route/105880763/low-tide",
    "createdAt": "2025-04-01T06:22:47.059Z",
    "updatedAt": "2025-04-01T06:22:47.059Z"
  },
  {
    "id": "3eef70c1-7aee-45e2-8f74-366c78717ae8",
    "name": "Sherman Photo Roof",
    "type": "BOULDER",
    "difficulty": "V7",
    "latitude": 34.64929,
    "longitude": -85.39064,
    "website": "https://www.mountainproject.com/route/106338721/sherman-photo-roof",
    "createdAt": "2025-04-01T06:22:48.394Z",
    "updatedAt": "2025-04-01T06:22:48.394Z"
  },
  {
    "id": "00f4e1b7-5874-4687-be5c-88180a176b94",
    "name": "Shot Hole",
    "type": "BOULDER",
    "difficulty": "V6",
    "latitude": 37.06962,
    "longitude": -113.62769,
    "website": "https://www.mountainproject.com/route/107017522/shot-hole",
    "createdAt": "2025-04-01T06:22:50.674Z",
    "updatedAt": "2025-04-01T06:22:50.674Z"
  },
  {
    "id": "b704da18-5793-4fee-8162-a7f7ac12d3f3",
    "name": "Resonated",
    "type": "BOULDER",
    "difficulty": "V8",
    "latitude": 39.93107,
    "longitude": -105.29096,
    "website": "https://www.mountainproject.com/route/106669318/resonated",
    "createdAt": "2025-04-01T06:22:52.850Z",
    "updatedAt": "2025-04-01T06:22:52.850Z"
  },
  {
    "id": "6b6d3877-bba9-41b8-9949-3edac2f5369d",
    "name": "Ghetto Simulator",
    "type": "BOULDER",
    "difficulty": "V2",
    "latitude": 31.91986,
    "longitude": -106.04598,
    "website": "https://www.mountainproject.com/route/106432787/ghetto-simulator",
    "createdAt": "2025-04-01T06:22:54.303Z",
    "updatedAt": "2025-04-01T06:22:54.303Z"
  },
  {
    "id": "3336195a-8cdb-4251-9fe4-405c1835f57e",
    "name": "Circus Trick",
    "type": "BOULDER",
    "difficulty": "V6",
    "latitude": 38.65058,
    "longitude": -109.48477,
    "website": "https://www.mountainproject.com/route/105717433/circus-trick",
    "createdAt": "2025-04-01T06:22:56.259Z",
    "updatedAt": "2025-04-01T06:22:56.259Z"
  },
  {
    "id": "54bed9d0-5abd-4cb3-a7a8-a2be123ceab4",
    "name": "Tequila Sunset",
    "type": "BOULDER",
    "difficulty": "V4",
    "latitude": 40.57256,
    "longitude": -111.68855,
    "website": "https://www.mountainproject.com/route/109242831/tequila-sunset",
    "createdAt": "2025-04-01T06:22:58.944Z",
    "updatedAt": "2025-04-01T06:22:58.944Z"
  },
  {
    "id": "d3365e65-674d-4af5-9b9e-9e04465a6d61",
    "name": "Gunsmoke",
    "type": "BOULDER",
    "difficulty": "V3",
    "latitude": 34.02858,
    "longitude": -116.14508,
    "website": "https://www.mountainproject.com/route/105722350/gunsmoke",
    "createdAt": "2025-04-01T06:23:00.917Z",
    "updatedAt": "2025-04-01T06:23:00.917Z"
  },
  {
    "id": "661cccaf-4fae-4e98-b4d7-148053f7209f",
    "name": "Front Side Crack",
    "type": "BOULDER",
    "difficulty": "5.8",
    "latitude": 36.15993,
    "longitude": -115.41713,
    "website": "https://www.mountainproject.com/route/106617793/front-side-crack",
    "createdAt": "2025-04-01T06:23:03.385Z",
    "updatedAt": "2025-04-01T06:23:03.385Z"
  },
  {
    "id": "7dba82e4-6184-4b9d-90b0-a0990b31d585",
    "name": "Le Beak",
    "type": "BOULDER",
    "difficulty": "V4",
    "latitude": 35.8786,
    "longitude": -93.121,
    "website": "https://www.mountainproject.com/route/106666706/le-beak",
    "createdAt": "2025-04-01T06:23:03.486Z",
    "updatedAt": "2025-04-01T06:23:03.486Z"
  },
  {
    "id": "27cd34bf-73dc-40ab-b6f2-65a5b625c28e",
    "name": "Yeti",
    "type": "BOULDER",
    "difficulty": "V4",
    "latitude": 34.49764,
    "longitude": -119.8617,
    "website": "https://www.mountainproject.com/route/106603322/yeti",
    "createdAt": "2025-04-01T06:23:05.357Z",
    "updatedAt": "2025-04-01T06:23:05.357Z"
  },
  {
    "id": "da7ef9b1-74aa-432d-a198-7a4d898d8f30",
    "name": "The Godfather",
    "type": "BOULDER",
    "difficulty": "V4",
    "latitude": 43.01229,
    "longitude": -90.12221,
    "website": "https://www.mountainproject.com/route/105889429/the-godfather",
    "createdAt": "2025-04-01T06:23:09.424Z",
    "updatedAt": "2025-04-01T06:23:09.424Z"
  },
  {
    "id": "c64329b1-e7be-4195-a27f-e345d0f4557b",
    "name": "Overlooked",
    "type": "BOULDER",
    "difficulty": "V4",
    "latitude": 43.11872,
    "longitude": -71.18135,
    "website": "https://www.mountainproject.com/route/105945306/overlooked",
    "createdAt": "2025-04-01T06:23:10.936Z",
    "updatedAt": "2025-04-01T06:23:10.936Z"
  },
  {
    "id": "661ef08a-3b01-4d57-ab37-a1228d5f1985",
    "name": "Stem Gem",
    "type": "BOULDER",
    "difficulty": "V4",
    "latitude": 34.01716,
    "longitude": -116.16368,
    "website": "https://www.mountainproject.com/route/105722608/stem-gem",
    "createdAt": "2025-04-01T06:23:13.541Z",
    "updatedAt": "2025-04-01T06:23:13.541Z"
  },
  {
    "id": "71b13e56-7caf-40f2-a29a-7ea0976d221b",
    "name": "The Hunk",
    "type": "BOULDER",
    "difficulty": "V2",
    "latitude": 37.32886,
    "longitude": -118.57512,
    "website": "https://www.mountainproject.com/route/106382086/the-hunk",
    "createdAt": "2025-04-01T06:23:15.742Z",
    "updatedAt": "2025-04-01T06:23:15.742Z"
  },
  {
    "id": "43ac8fe4-143b-488f-a767-30a08f6bf17a",
    "name": "Shadow of a Man",
    "type": "BOULDER",
    "difficulty": "V5",
    "latitude": 37.61583,
    "longitude": -89.41048,
    "website": "https://www.mountainproject.com/route/108312154/shadow-of-a-man",
    "createdAt": "2025-04-01T06:23:17.520Z",
    "updatedAt": "2025-04-01T06:23:17.520Z"
  },
  {
    "id": "ac397324-9965-415f-bc2a-b78193ac1af9",
    "name": "Water Paintings",
    "type": "BOULDER",
    "difficulty": "V7-8",
    "latitude": 39.31017,
    "longitude": -111.18539,
    "website": "https://www.mountainproject.com/route/109691183/water-paintings",
    "createdAt": "2025-04-01T06:23:20.232Z",
    "updatedAt": "2025-04-01T06:23:20.232Z"
  },
  {
    "id": "1ab796c3-048b-4392-ab8c-c638a9022cae",
    "name": "Baby Face",
    "type": "BOULDER",
    "difficulty": "V7",
    "latitude": 31.9217,
    "longitude": -106.0456,
    "website": "https://www.mountainproject.com/route/105811271/baby-face",
    "createdAt": "2025-04-01T06:23:21.646Z",
    "updatedAt": "2025-04-01T06:23:21.646Z"
  },
  {
    "id": "be317290-0da7-47fa-a0dc-96671a6a49ba",
    "name": "The Kind (originally In You…",
    "type": "BOULDER",
    "difficulty": "V5",
    "latitude": 40.30939,
    "longitude": -105.66479,
    "website": "https://www.mountainproject.com/route/106443056/the-kind-originally-in-your-face-then-standard-overhang-after-the-block-was-remo",
    "createdAt": "2025-04-01T06:23:23.478Z",
    "updatedAt": "2025-04-01T06:23:23.478Z"
  },
  {
    "id": "a43af933-4566-45c5-a84b-f9a01d9218f5",
    "name": "Plumber's Crack",
    "type": "BOULDER",
    "difficulty": "5.9",
    "latitude": 36.15993,
    "longitude": -115.41713,
    "website": "https://www.mountainproject.com/route/107185645/plumbers-crack",
    "createdAt": "2025-04-01T06:23:24.889Z",
    "updatedAt": "2025-04-01T06:23:24.889Z"
  },
  {
    "id": "c9ced1ff-f754-4197-a6ef-cbfc6f773f85",
    "name": "Super Mario",
    "type": "BOULDER",
    "difficulty": "V4",
    "latitude": 35.25075,
    "longitude": -85.21694,
    "website": "https://www.mountainproject.com/route/106031948/super-mario",
    "createdAt": "2025-04-01T06:23:26.614Z",
    "updatedAt": "2025-04-01T06:23:26.615Z"
  },
  {
    "id": "01dd18fd-08fc-42d2-b70f-49771451d90d",
    "name": "Super Slab",
    "type": "BOULDER",
    "difficulty": "V0",
    "latitude": 43.42098,
    "longitude": -89.73728,
    "website": "https://www.mountainproject.com/route/106528448/super-slab",
    "createdAt": "2025-04-01T06:23:28.328Z",
    "updatedAt": "2025-04-01T06:23:28.328Z"
  },
  {
    "id": "8df7db4d-b65b-4bb2-b813-7376bae81fd6",
    "name": "Heavenly Path",
    "type": "BOULDER",
    "difficulty": "V1",
    "latitude": 37.41718,
    "longitude": -118.45095,
    "website": "https://www.mountainproject.com/route/105996532/heavenly-path",
    "createdAt": "2025-04-01T06:23:30.145Z",
    "updatedAt": "2025-04-01T06:23:30.145Z"
  },
  {
    "id": "d77db8df-4351-40f6-905e-ffcbe4253df5",
    "name": "Soul Slinger",
    "type": "BOULDER",
    "difficulty": "V9",
    "latitude": 37.32868,
    "longitude": -118.57635,
    "website": "https://www.mountainproject.com/route/105908345/soul-slinger",
    "createdAt": "2025-04-01T06:23:31.519Z",
    "updatedAt": "2025-04-01T06:23:31.519Z"
  },
  {
    "id": "20c6df07-f48e-4766-834a-42dc48335a7b",
    "name": "Pink Lady",
    "type": "BOULDER",
    "difficulty": "V6",
    "latitude": 37.06494,
    "longitude": -113.63155,
    "website": "https://www.mountainproject.com/route/108250606/pink-lady",
    "createdAt": "2025-04-01T06:23:31.646Z",
    "updatedAt": "2025-04-01T06:23:31.646Z"
  },
  {
    "id": "a6ca7618-b94e-4f20-a8dc-4013fc429540",
    "name": "The Whip",
    "type": "BOULDER",
    "difficulty": "V2",
    "latitude": 43.116,
    "longitude": -71.17689,
    "website": "https://www.mountainproject.com/route/105946032/the-whip",
    "createdAt": "2025-04-01T06:23:35.196Z",
    "updatedAt": "2025-04-01T06:23:35.196Z"
  },
  {
    "id": "1c5931ad-23c2-44ba-9ddb-ad810575a85c",
    "name": "Angel Dyno",
    "type": "BOULDER",
    "difficulty": "V7",
    "latitude": 36.15968,
    "longitude": -115.4161,
    "website": "https://www.mountainproject.com/route/106378785/angel-dyno",
    "createdAt": "2025-04-01T06:23:37.132Z",
    "updatedAt": "2025-04-01T06:23:37.132Z"
  },
  {
    "id": "2605f64e-f07f-4fc8-ab05-c03ed885ffba",
    "name": "The Pork Chop",
    "type": "BOULDER",
    "difficulty": "V3",
    "latitude": 36.16403,
    "longitude": -115.41266,
    "website": "https://www.mountainproject.com/route/107385804/the-pork-chop",
    "createdAt": "2025-04-01T06:23:39.607Z",
    "updatedAt": "2025-04-01T06:23:39.607Z"
  },
  {
    "id": "45b17071-969c-462f-a325-8c5edb628073",
    "name": "The Buddha",
    "type": "BOULDER",
    "difficulty": "V6-7",
    "latitude": 41.74324,
    "longitude": -74.17965,
    "website": "https://www.mountainproject.com/route/106518881/the-buddha",
    "createdAt": "2025-04-01T06:23:41.052Z",
    "updatedAt": "2025-04-01T06:23:41.052Z"
  },
  {
    "id": "4983ba0d-3aa2-4792-9409-356967771b60",
    "name": "Michelangelo",
    "type": "BOULDER",
    "difficulty": "V3",
    "latitude": 39.28916,
    "longitude": -111.18067,
    "website": "https://www.mountainproject.com/route/106309689/michelangelo",
    "createdAt": "2025-04-01T06:23:43.415Z",
    "updatedAt": "2025-04-01T06:23:43.415Z"
  },
  {
    "id": "1100693a-2552-448e-9a4a-085cfbda2567",
    "name": "Maxipad",
    "type": "BOULDER",
    "difficulty": "V6",
    "latitude": 39.31165,
    "longitude": -111.18872,
    "website": "https://www.mountainproject.com/route/105904234/maxipad",
    "createdAt": "2025-04-01T06:23:45.588Z",
    "updatedAt": "2025-04-01T06:23:45.588Z"
  },
  {
    "id": "60e935d3-9c36-4489-b050-ca909300cb4f",
    "name": "Leary/Bard Arete",
    "type": "BOULDER",
    "difficulty": "V5",
    "latitude": 37.32909,
    "longitude": -118.57791,
    "website": "https://www.mountainproject.com/route/106351951/learybard-arete",
    "createdAt": "2025-04-01T06:23:47.683Z",
    "updatedAt": "2025-04-01T06:23:47.683Z"
  },
  {
    "id": "3c841fc3-a53e-4a87-bdb6-e492fe2c3a75",
    "name": "Black Magic",
    "type": "BOULDER",
    "difficulty": "V3",
    "latitude": 37.41675,
    "longitude": -118.44942,
    "website": "https://www.mountainproject.com/route/106996981/black-magic",
    "createdAt": "2025-04-01T06:23:49.549Z",
    "updatedAt": "2025-04-01T06:23:49.549Z"
  },
  {
    "id": "e918e08d-0df4-42ee-b7a5-a50db75f36ea",
    "name": "Kill by Numbers",
    "type": "BOULDER",
    "difficulty": "V5",
    "latitude": 39.27542,
    "longitude": -111.20602,
    "website": "https://www.mountainproject.com/route/107185361/kill-by-numbers",
    "createdAt": "2025-04-01T06:23:50.901Z",
    "updatedAt": "2025-04-01T06:23:50.901Z"
  },
  {
    "id": "21b90cc3-5dd3-4ed7-abdf-50f114d7f87a",
    "name": "The Hulk",
    "type": "BOULDER",
    "difficulty": "V6",
    "latitude": 37.41747,
    "longitude": -118.45136,
    "website": "https://www.mountainproject.com/route/105988462/the-hulk",
    "createdAt": "2025-04-01T06:23:53.351Z",
    "updatedAt": "2025-04-01T06:23:53.351Z"
  },
  {
    "id": "d1db6aea-eecb-45d5-9a45-50980e453bf0",
    "name": "Soap on a Rope",
    "type": "BOULDER",
    "difficulty": "V4-5",
    "latitude": 34.65401,
    "longitude": -85.39078,
    "website": "https://www.mountainproject.com/route/106036163/soap-on-a-rope",
    "createdAt": "2025-04-01T06:23:55.146Z",
    "updatedAt": "2025-04-01T06:23:55.146Z"
  },
  {
    "id": "a70f780d-a167-4b2a-9a4e-9c8e422edb89",
    "name": "Mr. Moran",
    "type": "BOULDER",
    "difficulty": "V7",
    "latitude": 36.1653,
    "longitude": -115.41424,
    "website": "https://www.mountainproject.com/route/107385835/mr-moran",
    "createdAt": "2025-04-01T06:23:57.496Z",
    "updatedAt": "2025-04-01T06:23:57.496Z"
  },
  {
    "id": "f0ca18a6-83b1-4524-9497-6989fef19c28",
    "name": "[Redacted]",
    "type": "BOULDER",
    "difficulty": "V3",
    "latitude": 33.92053,
    "longitude": -86.30898,
    "website": "https://www.mountainproject.com/route/107418517/redacted",
    "createdAt": "2025-04-01T06:24:00.048Z",
    "updatedAt": "2025-04-01T06:24:00.048Z"
  },
  {
    "id": "0ce2cc3c-d73d-4e01-9548-36c0f86bf4d7",
    "name": "Black Jack Crack",
    "type": "BOULDER",
    "difficulty": "5.10d",
    "latitude": 43.80288,
    "longitude": -71.84167,
    "website": "https://www.mountainproject.com/route/105899775/black-jack-crack",
    "createdAt": "2025-04-01T06:24:01.342Z",
    "updatedAt": "2025-04-01T06:24:01.342Z"
  },
  {
    "id": "ee925594-c145-4515-961b-b6741ee4e284",
    "name": "Summer Vacation",
    "type": "BOULDER",
    "difficulty": "V0",
    "latitude": 49.68113,
    "longitude": -123.15165,
    "website": "https://www.mountainproject.com/route/107772738/summer-vacation",
    "createdAt": "2025-04-01T06:24:03.437Z",
    "updatedAt": "2025-04-01T06:24:03.437Z"
  },
  {
    "id": "b7f7ace9-5145-47d6-8b37-57e15ee923d8",
    "name": "The Millennium Falcon",
    "type": "BOULDER",
    "difficulty": "V1",
    "latitude": 39.05158,
    "longitude": -108.6059,
    "website": "https://www.mountainproject.com/route/106055084/the-millennium-falcon",
    "createdAt": "2025-04-01T06:24:04.991Z",
    "updatedAt": "2025-04-01T06:24:04.991Z"
  },
  {
    "id": "cde12146-9e4b-4dc3-a219-6a84d3960fce",
    "name": "The Shield",
    "type": "BOULDER",
    "difficulty": "V7",
    "latitude": 47.54501,
    "longitude": -120.73283,
    "website": "https://www.mountainproject.com/route/106288750/the-shield",
    "createdAt": "2025-04-01T06:24:07.041Z",
    "updatedAt": "2025-04-01T06:24:07.041Z"
  },
  {
    "id": "c6c693b1-e0db-453c-8ffa-f427e5b8c2af",
    "name": "Circuit Breaker",
    "type": "BOULDER",
    "difficulty": "5.11b",
    "latitude": 37.73578,
    "longitude": -119.57543,
    "website": "https://www.mountainproject.com/route/105979654/circuit-breaker",
    "createdAt": "2025-04-01T06:24:08.542Z",
    "updatedAt": "2025-04-01T06:24:08.542Z"
  },
  {
    "id": "0a2c0856-34ef-4d9e-8f9b-11b054b488f6",
    "name": "Toadstool Traverse",
    "type": "BOULDER",
    "difficulty": "V4-5",
    "latitude": 37.07794,
    "longitude": -113.6307,
    "website": "https://www.mountainproject.com/route/112517488/toadstool-traverse",
    "createdAt": "2025-04-01T06:24:10.811Z",
    "updatedAt": "2025-04-01T06:24:10.811Z"
  },
  {
    "id": "ad712817-3637-4eb0-891d-49013a1c53d9",
    "name": "The Melon Patch",
    "type": "BOULDER",
    "difficulty": "V0",
    "latitude": 31.92231,
    "longitude": -106.04859,
    "website": "https://www.mountainproject.com/route/106432774/the-melon-patch",
    "createdAt": "2025-04-01T06:24:12.692Z",
    "updatedAt": "2025-04-01T06:24:12.692Z"
  },
  {
    "id": "a56e6a2e-c70b-458d-a0ea-39f7f262c499",
    "name": "Vertical Ice",
    "type": "BOULDER",
    "difficulty": "V6",
    "latitude": 39.3721,
    "longitude": -111.22236,
    "website": "https://www.mountainproject.com/route/107918149/vertical-ice",
    "createdAt": "2025-04-01T06:24:15.311Z",
    "updatedAt": "2025-04-01T06:24:15.311Z"
  },
  {
    "id": "ae468d3e-1df4-4576-85dc-59f0219555bf",
    "name": "Kahuna Roof",
    "type": "BOULDER",
    "difficulty": "V6",
    "latitude": 40.32211,
    "longitude": -105.21435,
    "website": "https://www.mountainproject.com/route/105754081/kahuna-roof",
    "createdAt": "2025-04-01T06:24:18.034Z",
    "updatedAt": "2025-04-01T06:24:18.034Z"
  },
  {
    "id": "228aa26c-df58-4d51-981e-bdb45cb3edd5",
    "name": "Suspended in Silence",
    "type": "BOULDER",
    "difficulty": "V5-6",
    "latitude": 37.3377,
    "longitude": -118.5701,
    "website": "https://www.mountainproject.com/route/106645675/suspended-in-silence",
    "createdAt": "2025-04-01T06:24:20.512Z",
    "updatedAt": "2025-04-01T06:24:20.512Z"
  },
  {
    "id": "4f9e6daa-7342-47ce-81be-c8f3a6541285",
    "name": "Fry Problem",
    "type": "BOULDER",
    "difficulty": "V2",
    "latitude": 33.98831,
    "longitude": -116.15795,
    "website": "https://www.mountainproject.com/route/106039374/fry-problem",
    "createdAt": "2025-04-01T06:24:23.341Z",
    "updatedAt": "2025-04-01T06:24:23.341Z"
  },
  {
    "id": "e123410b-7dbc-4471-b759-c1682c5a02c9",
    "name": "Iron Man Traverse",
    "type": "BOULDER",
    "difficulty": "V4",
    "latitude": 37.33001,
    "longitude": -118.57811,
    "website": "https://www.mountainproject.com/route/105936763/iron-man-traverse",
    "createdAt": "2025-04-01T06:24:25.126Z",
    "updatedAt": "2025-04-01T06:24:25.126Z"
  },
  {
    "id": "0cead453-cdc4-40be-86d0-2b784897a072",
    "name": "Zig Zag Crack",
    "type": "BOULDER",
    "difficulty": "V1",
    "latitude": 43.80288,
    "longitude": -71.84167,
    "website": "https://www.mountainproject.com/route/105899651/zig-zag-crack",
    "createdAt": "2025-04-01T06:24:27.382Z",
    "updatedAt": "2025-04-01T06:24:27.382Z"
  },
  {
    "id": "495fce04-c534-46e2-99aa-907055728399",
    "name": "Great White",
    "type": "BOULDER",
    "difficulty": "V6",
    "latitude": 39.28916,
    "longitude": -111.18067,
    "website": "https://www.mountainproject.com/route/110100932/great-white",
    "createdAt": "2025-04-01T06:24:29.587Z",
    "updatedAt": "2025-04-01T06:24:29.587Z"
  },
  {
    "id": "df43d2d0-0e0a-4e7b-8677-ff3bec31115d",
    "name": "Bates Arete",
    "type": "BOULDER",
    "difficulty": "V4",
    "latitude": 37.22868,
    "longitude": -122.09628,
    "website": "https://www.mountainproject.com/route/105736294/bates-arete",
    "createdAt": "2025-04-01T06:24:30.489Z",
    "updatedAt": "2025-04-01T06:24:30.489Z"
  },
  {
    "id": "53c6d838-e4e7-48b5-8077-8520d7f09f6d",
    "name": "The Fridge Center",
    "type": "BOULDER",
    "difficulty": "V4",
    "latitude": 47.54741,
    "longitude": -120.69566,
    "website": "https://www.mountainproject.com/route/106182185/the-fridge-center",
    "createdAt": "2025-04-01T06:24:32.174Z",
    "updatedAt": "2025-04-01T06:24:32.174Z"
  },
  {
    "id": "582f2bad-8855-4ae3-b51b-8ec4e1ccad6d",
    "name": "Footless Traverse",
    "type": "BOULDER",
    "difficulty": "V5",
    "latitude": 47.65635,
    "longitude": -120.72949,
    "website": "https://www.mountainproject.com/route/106551257/footless-traverse",
    "createdAt": "2025-04-01T06:24:33.852Z",
    "updatedAt": "2025-04-01T06:24:33.852Z"
  },
  {
    "id": "3b4b37d3-99f5-4bc1-b066-3cee1f1092d6",
    "name": "The Angler",
    "type": "BOULDER",
    "difficulty": "V2",
    "latitude": 39.27864,
    "longitude": -111.22785,
    "website": "https://www.mountainproject.com/route/105880426/the-angler",
    "createdAt": "2025-04-01T06:24:35.614Z",
    "updatedAt": "2025-04-01T06:24:35.614Z"
  },
  {
    "id": "31b6201e-72ab-4c9f-9b3d-8512cdea061a",
    "name": "Warbonnet",
    "type": "BOULDER",
    "difficulty": "V5",
    "latitude": 36.00594,
    "longitude": -93.28674,
    "website": "https://www.mountainproject.com/route/107285980/warbonnet",
    "createdAt": "2025-04-01T06:24:37.122Z",
    "updatedAt": "2025-04-01T06:24:37.122Z"
  },
  {
    "id": "7179d9c3-e352-4044-b3f7-c5253fabb7a5",
    "name": "Lost Keys Traverse",
    "type": "BOULDER",
    "difficulty": "V6",
    "latitude": 37.2313,
    "longitude": -122.09123,
    "website": "https://www.mountainproject.com/route/107082274/lost-keys-traverse",
    "createdAt": "2025-04-01T06:24:39.760Z",
    "updatedAt": "2025-04-01T06:24:39.760Z"
  },
  {
    "id": "e0e77508-400c-4834-8cc7-17fb792777d1",
    "name": "Bring the Heatwole",
    "type": "BOULDER",
    "difficulty": "V7",
    "latitude": 39.27711,
    "longitude": -111.22499,
    "website": "https://www.mountainproject.com/route/106594699/bring-the-heatwole",
    "createdAt": "2025-04-01T06:24:40.968Z",
    "updatedAt": "2025-04-01T06:24:40.968Z"
  },
  {
    "id": "027f2d61-4670-4a81-8e53-aa99d4a4bcb1",
    "name": "The Physical",
    "type": "BOULDER",
    "difficulty": "V4",
    "latitude": 47.54533,
    "longitude": -120.73273,
    "website": "https://www.mountainproject.com/route/108184692/the-physical",
    "createdAt": "2025-04-01T06:24:42.853Z",
    "updatedAt": "2025-04-01T06:24:42.853Z"
  },
  {
    "id": "0a8939e4-ed8b-4230-9989-b52df4438510",
    "name": "Israil Direct",
    "type": "BOULDER",
    "difficulty": "V8",
    "latitude": 37.06494,
    "longitude": -113.63155,
    "website": "https://www.mountainproject.com/route/106708599/israil-direct",
    "createdAt": "2025-04-01T06:24:45.391Z",
    "updatedAt": "2025-04-01T06:24:45.391Z"
  },
  {
    "id": "f35c8675-0a57-47ff-a7d9-5b86c7dd35cc",
    "name": "Earth Wind & Fire",
    "type": "BOULDER",
    "difficulty": "V3",
    "latitude": 33.92297,
    "longitude": -86.30664,
    "website": "https://www.mountainproject.com/route/106293533/earth-wind-fire",
    "createdAt": "2025-04-01T06:24:50.156Z",
    "updatedAt": "2025-04-01T06:24:50.156Z"
  },
  {
    "id": "750a70a4-366c-494d-96f3-3fa796f9ecd6",
    "name": "Grimace",
    "type": "BOULDER",
    "difficulty": "V8-",
    "latitude": 35.2499,
    "longitude": -85.21807,
    "website": "https://www.mountainproject.com/route/107439575/grimace",
    "createdAt": "2025-04-01T06:24:52.088Z",
    "updatedAt": "2025-04-01T06:24:52.088Z"
  },
  {
    "id": "c9c2a7a1-4aa5-466a-baa2-e5ed728ed13b",
    "name": "Spragueasorus",
    "type": "BOULDER",
    "difficulty": "V5",
    "latitude": 43.80288,
    "longitude": -71.84167,
    "website": "https://www.mountainproject.com/route/105961475/spragueasorus",
    "createdAt": "2025-04-01T06:24:54.458Z",
    "updatedAt": "2025-04-01T06:24:54.458Z"
  },
  {
    "id": "7db13340-d232-4980-858d-0151754deff8",
    "name": "You Dog You (aka The Sword)",
    "type": "BOULDER",
    "difficulty": "V3",
    "latitude": 47.57013,
    "longitude": -120.78799,
    "website": "https://www.mountainproject.com/route/105811922/you-dog-you-aka-the-sword",
    "createdAt": "2025-04-01T06:24:56.693Z",
    "updatedAt": "2025-04-01T06:24:56.693Z"
  },
  {
    "id": "7f9ad6ee-a3ec-414c-9aa7-aa9beaebf536",
    "name": "False Up 20",
    "type": "BOULDER",
    "difficulty": "V0-",
    "latitude": 34.01513,
    "longitude": -116.16605,
    "website": "https://www.mountainproject.com/route/105725461/false-up-20",
    "createdAt": "2025-04-01T06:24:57.679Z",
    "updatedAt": "2025-04-01T06:24:57.679Z"
  },
  {
    "id": "6e60af5f-026f-4558-a0ce-2b1bde505f76",
    "name": "Leap Frog",
    "type": "BOULDER",
    "difficulty": "V7",
    "latitude": 41.9053,
    "longitude": -71.4356,
    "website": "https://www.mountainproject.com/route/106833877/leap-frog",
    "createdAt": "2025-04-01T06:24:59.469Z",
    "updatedAt": "2025-04-01T06:24:59.469Z"
  },
  {
    "id": "84ffca01-d187-4df8-95f0-759892674501",
    "name": "Monkey Bars",
    "type": "BOULDER",
    "difficulty": "V2",
    "latitude": 36.16154,
    "longitude": -115.41099,
    "website": "https://www.mountainproject.com/route/106657521/monkey-bars",
    "createdAt": "2025-04-01T06:25:01.953Z",
    "updatedAt": "2025-04-01T06:25:01.953Z"
  },
  {
    "id": "ee998ed0-8676-42fb-b229-86598011eaa1",
    "name": "Nose Candy",
    "type": "BOULDER",
    "difficulty": "V6",
    "latitude": 34.64929,
    "longitude": -85.39064,
    "website": "https://www.mountainproject.com/route/106340625/nose-candy",
    "createdAt": "2025-04-01T06:25:03.207Z",
    "updatedAt": "2025-04-01T06:25:03.207Z"
  },
  {
    "id": "c8467241-ebaa-47c6-8153-021595bf97e5",
    "name": "The Turning Point",
    "type": "BOULDER",
    "difficulty": "V8",
    "latitude": 39.98899,
    "longitude": -105.29117,
    "website": "https://www.mountainproject.com/route/105752365/the-turning-point",
    "createdAt": "2025-04-01T06:25:05.688Z",
    "updatedAt": "2025-04-01T06:25:05.688Z"
  },
  {
    "id": "dede580d-1672-4623-b6fe-0b3e7a02aaff",
    "name": "Autobot",
    "type": "BOULDER",
    "difficulty": "V5",
    "latitude": 40.30492,
    "longitude": -105.66025,
    "website": "https://www.mountainproject.com/route/106244180/autobot",
    "createdAt": "2025-04-01T06:25:07.129Z",
    "updatedAt": "2025-04-01T06:25:07.129Z"
  },
  {
    "id": "78564a0f-4f8a-4ac5-97c9-060f0f78e0fc",
    "name": "Initial Friction",
    "type": "BOULDER",
    "difficulty": "V1",
    "latitude": 37.74232,
    "longitude": -119.60431,
    "website": "https://www.mountainproject.com/route/106036895/initial-friction",
    "createdAt": "2025-04-01T06:25:08.820Z",
    "updatedAt": "2025-04-01T06:25:08.820Z"
  },
  {
    "id": "4315c0cc-d204-4f4b-b6a0-27457369d2f8",
    "name": "Mister Witty",
    "type": "BOULDER",
    "difficulty": "V6",
    "latitude": 37.41698,
    "longitude": -118.45133,
    "website": "https://www.mountainproject.com/route/106126733/mister-witty",
    "createdAt": "2025-04-01T06:25:10.464Z",
    "updatedAt": "2025-04-01T06:25:10.464Z"
  },
  {
    "id": "a90b5fe9-4d06-4703-b2b7-ddfbbe2e88cb",
    "name": "Andrew Boulder Problem",
    "type": "BOULDER",
    "difficulty": "V4",
    "latitude": 41.74324,
    "longitude": -74.17965,
    "website": "https://www.mountainproject.com/route/106518895/andrew-boulder-problem",
    "createdAt": "2025-04-01T06:25:11.892Z",
    "updatedAt": "2025-04-01T06:25:11.892Z"
  },
  {
    "id": "92a5463c-335d-496c-8d76-db5672264366",
    "name": "Standard Deviation",
    "type": "BOULDER",
    "difficulty": "V6",
    "latitude": 34.64818,
    "longitude": -85.3919,
    "website": "https://www.mountainproject.com/route/108054353/standard-deviation",
    "createdAt": "2025-04-01T06:25:13.167Z",
    "updatedAt": "2025-04-01T06:25:13.167Z"
  },
  {
    "id": "0c6dea20-914e-4cbd-bf97-3c0af6e091d5",
    "name": "Art of the Vogi",
    "type": "BOULDER",
    "difficulty": "V4",
    "latitude": 35.24914,
    "longitude": -85.22048,
    "website": "https://www.mountainproject.com/route/106093504/art-of-the-vogi",
    "createdAt": "2025-04-01T06:25:15.426Z",
    "updatedAt": "2025-04-01T06:25:15.426Z"
  },
  {
    "id": "2cd98c03-998e-4aaa-b83e-26fff49efdf9",
    "name": "Atari",
    "type": "BOULDER",
    "difficulty": "V6",
    "latitude": 37.4165,
    "longitude": -118.44829,
    "website": "https://www.mountainproject.com/route/106044386/atari",
    "createdAt": "2025-04-01T06:25:17.054Z",
    "updatedAt": "2025-04-01T06:25:17.054Z"
  },
  {
    "id": "78317908-d3d0-4ca0-be04-64cc61d642f8",
    "name": "Bad Ass",
    "type": "BOULDER",
    "difficulty": "V5",
    "latitude": 35.07798,
    "longitude": -111.61136,
    "website": "https://www.mountainproject.com/route/106132849/bad-ass",
    "createdAt": "2025-04-01T06:25:19.599Z",
    "updatedAt": "2025-04-01T06:25:19.599Z"
  },
  {
    "id": "a4724d65-0657-4519-b64d-6c37546fb51c",
    "name": "Bowling Pin",
    "type": "BOULDER",
    "difficulty": "V4+",
    "latitude": 37.32959,
    "longitude": -118.5772,
    "website": "https://www.mountainproject.com/route/105936179/bowling-pin",
    "createdAt": "2025-04-01T06:25:21.624Z",
    "updatedAt": "2025-04-01T06:25:21.624Z"
  },
  {
    "id": "91628c4e-e71b-4ef6-94fc-f5dd4d621c5d",
    "name": "Girls of Juarez",
    "type": "BOULDER",
    "difficulty": "V4",
    "latitude": 31.92249,
    "longitude": -106.04448,
    "website": "https://www.mountainproject.com/route/106570780/girls-of-juarez",
    "createdAt": "2025-04-01T06:25:23.977Z",
    "updatedAt": "2025-04-01T06:25:23.977Z"
  },
  {
    "id": "30bf211d-4342-4ee6-9f6f-b593c035068f",
    "name": "The Real Thing",
    "type": "BOULDER",
    "difficulty": "V4",
    "latitude": 47.54498,
    "longitude": -120.73286,
    "website": "https://www.mountainproject.com/route/106288755/the-real-thing",
    "createdAt": "2025-04-01T06:25:25.557Z",
    "updatedAt": "2025-04-01T06:25:25.557Z"
  },
  {
    "id": "d5cb3038-e5e2-4892-a70a-a1e7bb139abd",
    "name": "Dime Crack",
    "type": "BOULDER",
    "difficulty": "V4+",
    "latitude": 35.44919,
    "longitude": -82.21852,
    "website": "https://www.mountainproject.com/route/106967927/dime-crack",
    "createdAt": "2025-04-01T06:25:27.163Z",
    "updatedAt": "2025-04-01T06:25:27.163Z"
  },
  {
    "id": "56b963ff-49d6-4da7-a671-af34c37cf13c",
    "name": "Makin' Waves",
    "type": "BOULDER",
    "difficulty": "V2",
    "latitude": 34.64924,
    "longitude": -85.39164,
    "website": "https://www.mountainproject.com/route/108011471/makin-waves",
    "createdAt": "2025-04-01T06:25:27.380Z",
    "updatedAt": "2025-04-01T06:25:27.380Z"
  },
  {
    "id": "ba73b36c-30b1-40f1-8568-568efc9a36c4",
    "name": "Every Color You Are",
    "type": "BOULDER",
    "difficulty": "V6",
    "latitude": 37.41698,
    "longitude": -118.45133,
    "website": "https://www.mountainproject.com/route/106126755/every-color-you-are",
    "createdAt": "2025-04-01T06:25:29.184Z",
    "updatedAt": "2025-04-01T06:25:29.184Z"
  },
  {
    "id": "0eb7a501-4003-4755-ad6b-96d792af609a",
    "name": "T-Bone Shuffle",
    "type": "BOULDER",
    "difficulty": "V4",
    "latitude": 31.92538,
    "longitude": -106.04439,
    "website": "https://www.mountainproject.com/route/106104321/t-bone-shuffle",
    "createdAt": "2025-04-01T06:25:30.434Z",
    "updatedAt": "2025-04-01T06:25:30.434Z"
  },
  {
    "id": "b7ceb93a-b1b8-4dc6-8e84-ba3b5b08c53d",
    "name": "Enlightenment",
    "type": "BOULDER",
    "difficulty": "V4+",
    "latitude": 37.61699,
    "longitude": -89.41109,
    "website": "https://www.mountainproject.com/route/108312247/enlightenment",
    "createdAt": "2025-04-01T06:25:31.835Z",
    "updatedAt": "2025-04-01T06:25:31.835Z"
  },
  {
    "id": "7f3a0336-09d6-41a6-ba68-624be62b5e74",
    "name": "Perfect Poser",
    "type": "BOULDER",
    "difficulty": "V1",
    "latitude": 36.15974,
    "longitude": -115.41913,
    "website": "https://www.mountainproject.com/route/105959433/perfect-poser",
    "createdAt": "2025-04-01T06:25:33.792Z",
    "updatedAt": "2025-04-01T06:25:33.792Z"
  },
  {
    "id": "428c44b9-1dfc-4653-b535-24342bff82b1",
    "name": "The Flatiron",
    "type": "BOULDER",
    "difficulty": "V4",
    "latitude": 43.41338,
    "longitude": -89.71207,
    "website": "https://www.mountainproject.com/route/105730853/the-flatiron",
    "createdAt": "2025-04-01T06:25:35.316Z",
    "updatedAt": "2025-04-01T06:25:35.316Z"
  },
  {
    "id": "74ba6a5e-a464-465a-93cf-54103055ac0a",
    "name": "El Classico",
    "type": "BOULDER",
    "difficulty": "V0",
    "latitude": 34.65246,
    "longitude": -85.39086,
    "website": "https://www.mountainproject.com/route/109614076/el-classico",
    "createdAt": "2025-04-01T06:25:37.653Z",
    "updatedAt": "2025-04-01T06:25:37.653Z"
  },
  {
    "id": "ef6d6bb5-a407-4bf6-8a4f-9fc5b2167e03",
    "name": "Old English",
    "type": "BOULDER",
    "difficulty": "V3",
    "latitude": 36.0025,
    "longitude": -93.29403,
    "website": "https://www.mountainproject.com/route/107285691/old-english",
    "createdAt": "2025-04-01T06:25:38.730Z",
    "updatedAt": "2025-04-01T06:25:38.730Z"
  },
  {
    "id": "64b63c89-8bca-43b5-9576-b88d453d622f",
    "name": "Jim",
    "type": "BOULDER",
    "difficulty": "V4",
    "latitude": 40.57134,
    "longitude": -111.75712,
    "website": "https://www.mountainproject.com/route/107307962/jim",
    "createdAt": "2025-04-01T06:25:40.129Z",
    "updatedAt": "2025-04-01T06:25:40.129Z"
  },
  {
    "id": "141abdb1-dcc7-475c-b4a8-594361799790",
    "name": "Anorexic Sacrifice",
    "type": "BOULDER",
    "difficulty": "V6",
    "latitude": 35.0807,
    "longitude": -111.61268,
    "website": "https://www.mountainproject.com/route/106053236/anorexic-sacrifice",
    "createdAt": "2025-04-01T06:25:41.555Z",
    "updatedAt": "2025-04-01T06:25:41.555Z"
  },
  {
    "id": "a88477d0-289c-44eb-ac6f-7f39ff6a607e",
    "name": "Love Matters",
    "type": "BOULDER",
    "difficulty": "V8",
    "latitude": 39.6321,
    "longitude": -105.70924,
    "website": "https://www.mountainproject.com/route/111082534/love-matters",
    "createdAt": "2025-04-01T06:25:44.108Z",
    "updatedAt": "2025-04-01T06:25:44.108Z"
  },
  {
    "id": "d778b075-a978-4c57-802f-6b2da59cd970",
    "name": "Internet Arete",
    "type": "BOULDER",
    "difficulty": "V3",
    "latitude": 39.63388,
    "longitude": -79.80663,
    "website": "https://www.mountainproject.com/route/112522475/internet-arete",
    "createdAt": "2025-04-01T06:25:45.636Z",
    "updatedAt": "2025-04-01T06:25:45.636Z"
  },
  {
    "id": "270751af-85b1-4748-b42c-4145cdc75286",
    "name": "The Pocket",
    "type": "BOULDER",
    "difficulty": "V4-",
    "latitude": 47.54255,
    "longitude": -120.72272,
    "website": "https://www.mountainproject.com/route/107369936/the-pocket",
    "createdAt": "2025-04-01T06:25:48.667Z",
    "updatedAt": "2025-04-01T06:25:48.667Z"
  },
  {
    "id": "b5130ca7-b1e2-4a9f-8785-40fcf186317a",
    "name": "Saturday Night Live",
    "type": "BOULDER",
    "difficulty": "V4",
    "latitude": 34.01167,
    "longitude": -116.16855,
    "website": "https://www.mountainproject.com/route/105723517/saturday-night-live",
    "createdAt": "2025-04-01T06:25:50.226Z",
    "updatedAt": "2025-04-01T06:25:50.226Z"
  },
  {
    "id": "c4c7f827-8ea8-4316-b5f6-daea8ef67e02",
    "name": "The Fang (Low Start) [Not R…",
    "type": "BOULDER",
    "difficulty": "V5-",
    "latitude": 34.34074,
    "longitude": -118.01659,
    "website": "https://www.mountainproject.com/route/109637318/the-fang-low-start-not-recommended",
    "createdAt": "2025-04-01T06:25:51.675Z",
    "updatedAt": "2025-04-01T06:25:51.675Z"
  },
  {
    "id": "fff5afe8-b087-41c7-b7e8-fa4b8c704cc1",
    "name": "Leggo my Ego",
    "type": "BOULDER",
    "difficulty": "V6",
    "latitude": 47.81749,
    "longitude": -121.59801,
    "website": "https://www.mountainproject.com/route/108269373/leggo-my-ego",
    "createdAt": "2025-04-01T06:25:53.499Z",
    "updatedAt": "2025-04-01T06:25:53.499Z"
  },
  {
    "id": "545f0719-19d7-4adc-88d1-54321f876348",
    "name": "Super Mario Extension",
    "type": "BOULDER",
    "difficulty": "V6-",
    "latitude": 35.25075,
    "longitude": -85.21694,
    "website": "https://www.mountainproject.com/route/108499598/super-mario-extension",
    "createdAt": "2025-04-01T06:25:55.618Z",
    "updatedAt": "2025-04-01T06:25:55.618Z"
  },
  {
    "id": "ce7e73da-3cea-45a4-8532-e10993cf5e93",
    "name": "Huntsman Graffiti",
    "type": "BOULDER",
    "difficulty": "V5",
    "latitude": 37.06927,
    "longitude": -113.6274,
    "website": "https://www.mountainproject.com/route/108008529/huntsman-graffiti",
    "createdAt": "2025-04-01T06:25:56.321Z",
    "updatedAt": "2025-04-01T06:25:56.321Z"
  },
  {
    "id": "845041be-1e21-44be-a52f-4ed4459fe7c9",
    "name": "The Quiet Buddhist",
    "type": "BOULDER",
    "difficulty": "V3",
    "latitude": 41.9053,
    "longitude": -71.4356,
    "website": "https://www.mountainproject.com/route/106833001/the-quiet-buddhist",
    "createdAt": "2025-04-01T06:25:58.341Z",
    "updatedAt": "2025-04-01T06:25:58.341Z"
  },
  {
    "id": "50257ded-8f29-499e-9f83-f73f79ea26d4",
    "name": "Grounded For Life",
    "type": "BOULDER",
    "difficulty": "V5",
    "latitude": 43.01417,
    "longitude": -90.11354,
    "website": "https://www.mountainproject.com/route/106219310/grounded-for-life",
    "createdAt": "2025-04-01T06:26:00.861Z",
    "updatedAt": "2025-04-01T06:26:00.861Z"
  },
  {
    "id": "83f57786-3e69-44fb-b00c-db979e07987d",
    "name": "Brown Power",
    "type": "BOULDER",
    "difficulty": "V4",
    "latitude": 38.65078,
    "longitude": -109.48395,
    "website": "https://www.mountainproject.com/route/106347517/brown-power",
    "createdAt": "2025-04-01T06:26:02.373Z",
    "updatedAt": "2025-04-01T06:26:02.373Z"
  },
  {
    "id": "344be3bd-6f31-434d-b0ed-be7b975b7363",
    "name": "Ketron Classic",
    "type": "BOULDER",
    "difficulty": "V4",
    "latitude": 37.418,
    "longitude": -118.452,
    "website": "https://www.mountainproject.com/route/106054139/ketron-classic",
    "createdAt": "2025-04-01T06:26:04.326Z",
    "updatedAt": "2025-04-01T06:26:04.326Z"
  },
  {
    "id": "4a49aae9-e7bd-42b0-b7f6-a5ed9e18912c",
    "name": "The Minturn Mile",
    "type": "BOULDER",
    "difficulty": "V6",
    "latitude": 39.50287,
    "longitude": -106.37364,
    "website": "https://www.mountainproject.com/route/106311096/the-minturn-mile",
    "createdAt": "2025-04-01T06:26:07.118Z",
    "updatedAt": "2025-04-01T06:26:07.118Z"
  },
  {
    "id": "f12b85a5-0525-4ccd-8c6d-15eda89a367c",
    "name": "King Cobra",
    "type": "BOULDER",
    "difficulty": "V6",
    "latitude": 31.9232,
    "longitude": -106.0437,
    "website": "https://www.mountainproject.com/route/105812823/king-cobra",
    "createdAt": "2025-04-01T06:26:08.835Z",
    "updatedAt": "2025-04-01T06:26:08.835Z"
  },
  {
    "id": "7bc34b05-0912-4f7d-826b-62425dfef027",
    "name": "Loadies Zen",
    "type": "BOULDER",
    "difficulty": "V6-7",
    "latitude": 41.89592,
    "longitude": -71.43158,
    "website": "https://www.mountainproject.com/route/106666199/loadies-zen",
    "createdAt": "2025-04-01T06:26:11.918Z",
    "updatedAt": "2025-04-01T06:26:11.918Z"
  },
  {
    "id": "a37ccf27-d719-469c-af73-543a748c9f08",
    "name": "The Ladder",
    "type": "BOULDER",
    "difficulty": "V2",
    "latitude": 39.6326,
    "longitude": -105.6211,
    "website": "https://www.mountainproject.com/route/106497744/the-ladder",
    "createdAt": "2025-04-01T06:26:14.275Z",
    "updatedAt": "2025-04-01T06:26:14.275Z"
  },
  {
    "id": "0fbf670c-c8f4-4e1d-ac98-0f42cf611a43",
    "name": "Slope of Dadaism",
    "type": "BOULDER",
    "difficulty": "V3",
    "latitude": 43.42252,
    "longitude": -89.72392,
    "website": "https://www.mountainproject.com/route/106435375/slope-of-dadaism",
    "createdAt": "2025-04-01T06:26:16.542Z",
    "updatedAt": "2025-04-01T06:26:16.542Z"
  },
  {
    "id": "f03ffc16-e9bd-4c93-a913-54ffe3b99e71",
    "name": "Buttermilk Stem",
    "type": "BOULDER",
    "difficulty": "V1",
    "latitude": 37.32906,
    "longitude": -118.5768,
    "website": "https://www.mountainproject.com/route/106130698/buttermilk-stem",
    "createdAt": "2025-04-01T06:26:19.061Z",
    "updatedAt": "2025-04-01T06:26:19.061Z"
  },
  {
    "id": "7aeb65fb-0d08-482d-9a5e-19598f293b4f",
    "name": "Alexisizer",
    "type": "BOULDER",
    "difficulty": "V6",
    "latitude": 36.16016,
    "longitude": -115.41213,
    "website": "https://www.mountainproject.com/route/106657518/alexisizer",
    "createdAt": "2025-04-01T06:26:21.654Z",
    "updatedAt": "2025-04-01T06:26:21.654Z"
  },
  {
    "id": "821af78b-f47a-4808-bcdf-dee94aa3a88d",
    "name": "Tree Problem",
    "type": "BOULDER",
    "difficulty": "V4+",
    "latitude": 37.2296,
    "longitude": -122.0952,
    "website": "https://www.mountainproject.com/route/105736297/tree-problem",
    "createdAt": "2025-04-01T06:26:25.289Z",
    "updatedAt": "2025-04-01T06:26:25.289Z"
  },
  {
    "id": "7853d48b-a63e-4436-9655-3a2bf4a0e31d",
    "name": "Lobsterclaw, AKA:Mr. Negative",
    "type": "BOULDER",
    "difficulty": "V5",
    "latitude": 31.9232,
    "longitude": -106.0437,
    "website": "https://www.mountainproject.com/route/105811638/lobsterclaw-akamr-negative",
    "createdAt": "2025-04-01T06:26:27.731Z",
    "updatedAt": "2025-04-01T06:26:27.731Z"
  },
  {
    "id": "d35e1954-4124-4871-9d94-1fd48f4b3ed4",
    "name": "Three Finger Pocket/Petrifi…",
    "type": "BOULDER",
    "difficulty": "V5",
    "latitude": 37.31088,
    "longitude": -107.8842,
    "website": "https://www.mountainproject.com/route/106393989/three-finger-pocketpetrified-prow",
    "createdAt": "2025-04-01T06:26:29.630Z",
    "updatedAt": "2025-04-01T06:26:29.630Z"
  },
  {
    "id": "2c056199-970d-4a47-9e8c-fd1614fd8f0c",
    "name": "Hammerhead",
    "type": "BOULDER",
    "difficulty": "V5",
    "latitude": 33.92297,
    "longitude": -86.30664,
    "website": "https://www.mountainproject.com/route/106286713/hammerhead",
    "createdAt": "2025-04-01T06:26:31.818Z",
    "updatedAt": "2025-04-01T06:26:31.818Z"
  },
  {
    "id": "5a64ad93-1129-4712-a7c8-17322e392f2e",
    "name": "The Rib",
    "type": "BOULDER",
    "difficulty": "V1",
    "latitude": 35.25185,
    "longitude": -85.2152,
    "website": "https://www.mountainproject.com/route/107039598/the-rib",
    "createdAt": "2025-04-01T06:26:33.662Z",
    "updatedAt": "2025-04-01T06:26:33.662Z"
  },
  {
    "id": "d68673c4-50a4-4e4c-a7cd-1fd47d6264f7",
    "name": "New Religion",
    "type": "BOULDER",
    "difficulty": "V7",
    "latitude": 31.9108,
    "longitude": -106.0372,
    "website": "https://www.mountainproject.com/route/106101052/new-religion",
    "createdAt": "2025-04-01T06:26:35.783Z",
    "updatedAt": "2025-04-01T06:26:35.783Z"
  },
  {
    "id": "7adbc342-60c9-4e3b-b76d-ef1ab9ea0d5c",
    "name": "Superfly",
    "type": "BOULDER",
    "difficulty": "V4",
    "latitude": 49.68175,
    "longitude": -123.15137,
    "website": "https://www.mountainproject.com/route/106034519/superfly",
    "createdAt": "2025-04-01T06:26:38.093Z",
    "updatedAt": "2025-04-01T06:26:38.093Z"
  },
  {
    "id": "4bb1ae81-2c47-4766-9e23-53747a9c515d",
    "name": "Baldwin Bash",
    "type": "BOULDER",
    "difficulty": "V7",
    "latitude": 39.3721,
    "longitude": -111.22236,
    "website": "https://www.mountainproject.com/route/107649370/baldwin-bash",
    "createdAt": "2025-04-01T06:26:39.644Z",
    "updatedAt": "2025-04-01T06:26:39.644Z"
  },
  {
    "id": "65669bb3-127c-40b0-b7b0-0bc5b6e6bccc",
    "name": "The Red House Extension",
    "type": "BOULDER",
    "difficulty": "V7-8",
    "latitude": 35.25075,
    "longitude": -85.21694,
    "website": "https://www.mountainproject.com/route/108027966/the-red-house-extension",
    "createdAt": "2025-04-01T06:26:41.796Z",
    "updatedAt": "2025-04-01T06:26:41.796Z"
  },
  {
    "id": "431ae03f-3181-48cd-a032-ccd3dc331054",
    "name": "Rug Rat",
    "type": "BOULDER",
    "difficulty": "V5",
    "latitude": 39.30349,
    "longitude": -111.18319,
    "website": "https://www.mountainproject.com/route/106389082/rug-rat",
    "createdAt": "2025-04-01T06:26:44.638Z",
    "updatedAt": "2025-04-01T06:26:44.638Z"
  },
  {
    "id": "81c904ff-9fa2-45e8-918e-1554ed2a67e6",
    "name": "The Mollusk",
    "type": "BOULDER",
    "difficulty": "V2-3",
    "latitude": 37.61563,
    "longitude": -89.41242,
    "website": "https://www.mountainproject.com/route/108312136/the-mollusk",
    "createdAt": "2025-04-01T06:26:47.026Z",
    "updatedAt": "2025-04-01T06:26:47.026Z"
  },
  {
    "id": "c3053ed8-58d1-45e1-a5a0-dd069ba48b5f",
    "name": "The Bat Cave",
    "type": "BOULDER",
    "difficulty": "V3+",
    "latitude": 35.08209,
    "longitude": -111.60985,
    "website": "https://www.mountainproject.com/route/105945102/the-bat-cave",
    "createdAt": "2025-04-01T06:26:48.750Z",
    "updatedAt": "2025-04-01T06:26:48.750Z"
  },
  {
    "id": "776a53ed-a3bb-4223-ac47-154820c660a3",
    "name": "Hershey's Symphony",
    "type": "BOULDER",
    "difficulty": "V1",
    "latitude": 31.9255,
    "longitude": -106.04368,
    "website": "https://www.mountainproject.com/route/106412481/hersheys-symphony",
    "createdAt": "2025-04-01T06:26:50.462Z",
    "updatedAt": "2025-04-01T06:26:50.462Z"
  },
  {
    "id": "f5cade63-2296-4b6e-8703-f9156dc22afd",
    "name": "Dig Dug",
    "type": "BOULDER",
    "difficulty": "V4",
    "latitude": 36.00082,
    "longitude": -93.29249,
    "website": "https://www.mountainproject.com/route/106356523/dig-dug",
    "createdAt": "2025-04-01T06:26:52.950Z",
    "updatedAt": "2025-04-01T06:26:52.950Z"
  },
  {
    "id": "63bad4c1-082c-4bb0-adfe-7464fdb23fb9",
    "name": "The Drum",
    "type": "BOULDER",
    "difficulty": "V5",
    "latitude": 37.06494,
    "longitude": -113.63155,
    "website": "https://www.mountainproject.com/route/112482788/the-drum",
    "createdAt": "2025-04-01T06:26:53.460Z",
    "updatedAt": "2025-04-01T06:26:53.460Z"
  },
  {
    "id": "53a221ef-0191-4d31-85b6-8d8fec6f8b9c",
    "name": "The Hole",
    "type": "BOULDER",
    "difficulty": "V6",
    "latitude": 47.54259,
    "longitude": -120.7227,
    "website": "https://www.mountainproject.com/route/106807930/the-hole",
    "createdAt": "2025-04-01T06:26:55.815Z",
    "updatedAt": "2025-04-01T06:26:55.815Z"
  },
  {
    "id": "23c18277-2fc8-4a14-8229-e076bc1d8f8f",
    "name": "Surfboard",
    "type": "BOULDER",
    "difficulty": "V4",
    "latitude": 40.57223,
    "longitude": -111.75618,
    "website": "https://www.mountainproject.com/route/106219764/surfboard",
    "createdAt": "2025-04-01T06:26:58.055Z",
    "updatedAt": "2025-04-01T06:26:58.055Z"
  },
  {
    "id": "f56136ea-3a94-4063-899a-83c2d5b2d754",
    "name": "Hero Roof",
    "type": "BOULDER",
    "difficulty": "V0",
    "latitude": 37.33,
    "longitude": -118.5782,
    "website": "https://www.mountainproject.com/route/106094805/hero-roof",
    "createdAt": "2025-04-01T06:26:59.581Z",
    "updatedAt": "2025-04-01T06:26:59.581Z"
  },
  {
    "id": "9a9fbf47-8469-40a1-ba9c-e1c9232cb376",
    "name": "Crescent Crack",
    "type": "BOULDER",
    "difficulty": "V2",
    "latitude": 35.44977,
    "longitude": -82.21876,
    "website": "https://www.mountainproject.com/route/106923851/crescent-crack",
    "createdAt": "2025-04-01T06:27:01.908Z",
    "updatedAt": "2025-04-01T06:27:01.908Z"
  },
  {
    "id": "9a3cdd59-d234-4262-a8e3-9ab375825b41",
    "name": "Sternum",
    "type": "BOULDER",
    "difficulty": "V5",
    "latitude": 35.24978,
    "longitude": -85.21811,
    "website": "https://www.mountainproject.com/route/106521387/sternum",
    "createdAt": "2025-04-01T06:27:03.853Z",
    "updatedAt": "2025-04-01T06:27:03.853Z"
  },
  {
    "id": "b5fd2b04-eb2b-4d23-8650-d3056dedf92b",
    "name": "Frosted Flakes",
    "type": "BOULDER",
    "difficulty": "V5",
    "latitude": 39.32889,
    "longitude": -111.19299,
    "website": "https://www.mountainproject.com/route/105880487/frosted-flakes",
    "createdAt": "2025-04-01T06:27:05.219Z",
    "updatedAt": "2025-04-01T06:27:05.219Z"
  },
  {
    "id": "03a9f02c-1774-4a8d-8bec-971a2abf6beb",
    "name": "Chips",
    "type": "BOULDER",
    "difficulty": "V7",
    "latitude": 39.30838,
    "longitude": -111.11474,
    "website": "https://www.mountainproject.com/route/106318958/chips",
    "createdAt": "2025-04-01T06:27:07.516Z",
    "updatedAt": "2025-04-01T06:27:07.516Z"
  },
  {
    "id": "fa60d68d-c96c-4982-a769-86e9d4f1825b",
    "name": "Twisted",
    "type": "BOULDER",
    "difficulty": "V4",
    "latitude": 40.57212,
    "longitude": -111.77269,
    "website": "https://www.mountainproject.com/route/105940363/twisted",
    "createdAt": "2025-04-01T06:27:09.991Z",
    "updatedAt": "2025-04-01T06:27:09.991Z"
  },
  {
    "id": "490e1887-e666-481a-85c2-ec2296b933ad",
    "name": "Genghis Khan",
    "type": "BOULDER",
    "difficulty": "V5",
    "latitude": 35.24899,
    "longitude": -85.22,
    "website": "https://www.mountainproject.com/route/106071688/genghis-khan",
    "createdAt": "2025-04-01T06:27:11.785Z",
    "updatedAt": "2025-04-01T06:27:11.785Z"
  },
  {
    "id": "f898e807-2ca0-4df5-b418-a7fa293d78a8",
    "name": "French Press",
    "type": "BOULDER",
    "difficulty": "V6",
    "latitude": 37.42127,
    "longitude": -118.43352,
    "website": "https://www.mountainproject.com/route/106554779/french-press",
    "createdAt": "2025-04-01T06:27:15.013Z",
    "updatedAt": "2025-04-01T06:27:15.013Z"
  },
  {
    "id": "74245c03-0915-45d2-9a42-d9eca0eca6c7",
    "name": "Zorro",
    "type": "BOULDER",
    "difficulty": "V4",
    "latitude": 37.73744,
    "longitude": -119.57605,
    "website": "https://www.mountainproject.com/route/106774200/zorro",
    "createdAt": "2025-04-01T06:27:17.100Z",
    "updatedAt": "2025-04-01T06:27:17.100Z"
  },
  {
    "id": "8ff4c513-e881-47b8-b955-7cc4a5782846",
    "name": "The Hesitator",
    "type": "BOULDER",
    "difficulty": "V2",
    "latitude": 47.54305,
    "longitude": -120.73494,
    "website": "https://www.mountainproject.com/route/108160639/the-hesitator",
    "createdAt": "2025-04-01T06:27:18.763Z",
    "updatedAt": "2025-04-01T06:27:18.763Z"
  },
  {
    "id": "b7f27eaa-c3a4-451f-a829-73d7f9e36fe7",
    "name": "Sheepherder",
    "type": "BOULDER",
    "difficulty": "V2",
    "latitude": 37.33022,
    "longitude": -118.57882,
    "website": "https://www.mountainproject.com/route/106279792/sheepherder",
    "createdAt": "2025-04-01T06:27:20.599Z",
    "updatedAt": "2025-04-01T06:27:20.599Z"
  },
  {
    "id": "6f21cd6e-90a6-4c9c-869b-1198649b0afe",
    "name": "The Long Traverse aka The M…",
    "type": "BOULDER",
    "difficulty": "V4",
    "latitude": 40.00096,
    "longitude": -105.29657,
    "website": "https://www.mountainproject.com/route/105761538/the-long-traverse-aka-the-monkey-traverse",
    "createdAt": "2025-04-01T06:27:21.396Z",
    "updatedAt": "2025-04-01T06:27:21.396Z"
  },
  {
    "id": "5fc50f95-eb24-4b71-b785-7f7601534f65",
    "name": "Proppa Dyno",
    "type": "BOULDER",
    "difficulty": "V5",
    "latitude": 39.3136,
    "longitude": -111.1871,
    "website": "https://www.mountainproject.com/route/107942088/proppa-dyno",
    "createdAt": "2025-04-01T06:27:23.497Z",
    "updatedAt": "2025-04-01T06:27:23.497Z"
  },
  {
    "id": "39540c36-8767-4b53-b4df-a886d6f2be76",
    "name": "Hangman",
    "type": "BOULDER",
    "difficulty": "V4+",
    "latitude": 43.05179,
    "longitude": -90.09875,
    "website": "https://www.mountainproject.com/route/106190473/hangman",
    "createdAt": "2025-04-01T06:27:25.342Z",
    "updatedAt": "2025-04-01T06:27:25.342Z"
  },
  {
    "id": "081c5ca1-5ba4-4245-b9d7-e065e1950159",
    "name": "The Fridge Arete",
    "type": "BOULDER",
    "difficulty": "V4-5",
    "latitude": 47.54741,
    "longitude": -120.69566,
    "website": "https://www.mountainproject.com/route/105802958/the-fridge-arete",
    "createdAt": "2025-04-01T06:27:27.634Z",
    "updatedAt": "2025-04-01T06:27:27.634Z"
  },
  {
    "id": "6459718b-965b-4f0f-a9d5-8e6a2e048c62",
    "name": "The Swan",
    "type": "BOULDER",
    "difficulty": "V7",
    "latitude": 37.06494,
    "longitude": -113.63155,
    "website": "https://www.mountainproject.com/route/108139526/the-swan",
    "createdAt": "2025-04-01T06:27:28.930Z",
    "updatedAt": "2025-04-01T06:27:28.930Z"
  },
  {
    "id": "257b847f-8550-460c-a68c-9f818aa6e247",
    "name": "Squirming Coil",
    "type": "BOULDER",
    "difficulty": "V5+",
    "latitude": 39.65122,
    "longitude": -105.18622,
    "website": "https://www.mountainproject.com/route/106053362/squirming-coil",
    "createdAt": "2025-04-01T06:27:31.278Z",
    "updatedAt": "2025-04-01T06:27:31.278Z"
  },
  {
    "id": "90bcf2e9-ea67-40b5-83b2-32d688693a18",
    "name": "Tom's Problem",
    "type": "BOULDER",
    "difficulty": "V5",
    "latitude": 40.5723,
    "longitude": -111.76891,
    "website": "https://www.mountainproject.com/route/110537308/toms-problem",
    "createdAt": "2025-04-01T06:27:32.737Z",
    "updatedAt": "2025-04-01T06:27:32.737Z"
  },
  {
    "id": "271b4fa3-400b-46e6-b7c2-6a264b227fd3",
    "name": "Baby Martini",
    "type": "BOULDER",
    "difficulty": "V6",
    "latitude": 31.92168,
    "longitude": -106.04317,
    "website": "https://www.mountainproject.com/route/105811210/baby-martini",
    "createdAt": "2025-04-01T06:27:34.596Z",
    "updatedAt": "2025-04-01T06:27:34.596Z"
  },
  {
    "id": "09c80f09-63ec-41aa-aa5f-ba7389cbd9a0",
    "name": "Mark of Zorro (aka Route 2)",
    "type": "BOULDER",
    "difficulty": "V5-",
    "latitude": 38.92893,
    "longitude": -108.49059,
    "website": "https://www.mountainproject.com/route/106087400/mark-of-zorro-aka-route-2",
    "createdAt": "2025-04-01T06:27:36.936Z",
    "updatedAt": "2025-04-01T06:27:36.936Z"
  },
  {
    "id": "3acc9cce-267f-4e83-90b5-c409f8fcf319",
    "name": "Mystery Machine",
    "type": "BOULDER",
    "difficulty": "V3",
    "latitude": 35.24919,
    "longitude": -85.22013,
    "website": "https://www.mountainproject.com/route/106350105/mystery-machine",
    "createdAt": "2025-04-01T06:27:38.047Z",
    "updatedAt": "2025-04-01T06:27:38.047Z"
  },
  {
    "id": "215b0ea0-c93d-4862-94d9-7f01b238b53e",
    "name": "Busted",
    "type": "BOULDER",
    "difficulty": "V7+",
    "latitude": 47.54501,
    "longitude": -120.73283,
    "website": "https://www.mountainproject.com/route/106413601/busted",
    "createdAt": "2025-04-01T06:27:39.153Z",
    "updatedAt": "2025-04-01T06:27:39.153Z"
  },
  {
    "id": "823c8555-95c5-4722-a172-a2abb1507373",
    "name": "The Gill Crack",
    "type": "BOULDER",
    "difficulty": "5.12a",
    "latitude": 39.9787,
    "longitude": -105.4551,
    "website": "https://www.mountainproject.com/route/105749902/the-gill-crack",
    "createdAt": "2025-04-01T06:27:41.627Z",
    "updatedAt": "2025-04-01T06:27:41.627Z"
  },
  {
    "id": "38975255-1228-4582-b679-f6aadd7dcc32",
    "name": "Double Arete",
    "type": "BOULDER",
    "difficulty": "V5",
    "latitude": 39.65122,
    "longitude": -105.18622,
    "website": "https://www.mountainproject.com/route/106059274/double-arete",
    "createdAt": "2025-04-01T06:27:43.982Z",
    "updatedAt": "2025-04-01T06:27:43.982Z"
  },
  {
    "id": "580eb933-aa97-4b2a-8733-e56756639bac",
    "name": "Pandemic",
    "type": "BOULDER",
    "difficulty": "V7",
    "latitude": 39.30035,
    "longitude": -111.17682,
    "website": "https://www.mountainproject.com/route/111829231/pandemic",
    "createdAt": "2025-04-01T06:27:46.528Z",
    "updatedAt": "2025-04-01T06:27:46.528Z"
  },
  {
    "id": "587ffc04-5d83-4073-a5aa-1b41ac5d79e7",
    "name": "Hyperglide (aka Monkey Pinch)",
    "type": "BOULDER",
    "difficulty": "V5",
    "latitude": 36.16154,
    "longitude": -115.41099,
    "website": "https://www.mountainproject.com/route/107074342/hyperglide-aka-monkey-pinch",
    "createdAt": "2025-04-01T06:27:48.618Z",
    "updatedAt": "2025-04-01T06:27:48.618Z"
  },
  {
    "id": "513e01de-0702-4997-a5f5-b36e2d82b477",
    "name": "Scary Monsters",
    "type": "BOULDER",
    "difficulty": "V6",
    "latitude": 39.27905,
    "longitude": -111.22764,
    "website": "https://www.mountainproject.com/route/105880771/scary-monsters",
    "createdAt": "2025-04-01T06:27:50.517Z",
    "updatedAt": "2025-04-01T06:27:50.517Z"
  },
  {
    "id": "85a69eb0-841d-4375-9d6a-98db12521e5d",
    "name": "Lizards' Mouth Traverse",
    "type": "BOULDER",
    "difficulty": "V0+",
    "latitude": 34.50224,
    "longitude": -119.86794,
    "website": "https://www.mountainproject.com/route/105951786/lizards-mouth-traverse",
    "createdAt": "2025-04-01T06:27:51.713Z",
    "updatedAt": "2025-04-01T06:27:51.713Z"
  },
  {
    "id": "ff2eb637-8300-4b35-9073-6d691d4bb3a8",
    "name": "Midnight Lichen",
    "type": "BOULDER",
    "difficulty": "V4",
    "latitude": 47.84703,
    "longitude": -121.60552,
    "website": "https://www.mountainproject.com/route/108662917/midnight-lichen",
    "createdAt": "2025-04-01T06:27:54.045Z",
    "updatedAt": "2025-04-01T06:27:54.045Z"
  },
  {
    "id": "6e437272-af41-4967-a919-6fadde4ca3c6",
    "name": "Underboy",
    "type": "BOULDER",
    "difficulty": "V4",
    "latitude": 37.06753,
    "longitude": -113.63276,
    "website": "https://www.mountainproject.com/route/108139578/underboy",
    "createdAt": "2025-04-01T06:27:56.482Z",
    "updatedAt": "2025-04-01T06:27:56.482Z"
  },
  {
    "id": "aa1f4351-db4b-4eec-b94e-53d04a9d6c30",
    "name": "Lidija's Mouth",
    "type": "BOULDER",
    "difficulty": "V3",
    "latitude": 37.3377,
    "longitude": -118.5701,
    "website": "https://www.mountainproject.com/route/106589288/lidijas-mouth",
    "createdAt": "2025-04-01T06:27:58.152Z",
    "updatedAt": "2025-04-01T06:27:58.152Z"
  },
  {
    "id": "8935dd7c-13ae-41e0-815e-103631690e4d",
    "name": "Mr Smiley",
    "type": "BOULDER",
    "difficulty": "V6",
    "latitude": 40.57223,
    "longitude": -111.75618,
    "website": "https://www.mountainproject.com/route/108191834/mr-smiley",
    "createdAt": "2025-04-01T06:27:59.791Z",
    "updatedAt": "2025-04-01T06:27:59.791Z"
  },
  {
    "id": "82e4c961-8dab-4747-ad58-2a6287330aff",
    "name": "Sorange",
    "type": "BOULDER",
    "difficulty": "V3",
    "latitude": 36.16095,
    "longitude": -115.42416,
    "website": "https://www.mountainproject.com/route/114000113/sorange",
    "createdAt": "2025-04-01T06:28:00.888Z",
    "updatedAt": "2025-04-01T06:28:00.888Z"
  },
  {
    "id": "d7a781ba-16f4-47e9-859e-46f8ae5278c0",
    "name": "Once Upon A Time",
    "type": "BOULDER",
    "difficulty": "V1",
    "latitude": 33.8216,
    "longitude": -116.75837,
    "website": "https://www.mountainproject.com/route/109471684/once-upon-a-time",
    "createdAt": "2025-04-01T06:28:04.575Z",
    "updatedAt": "2025-04-01T06:28:04.575Z"
  },
  {
    "id": "03626282-4930-47f1-8db5-eda68cb2ae8a",
    "name": "Shotgun",
    "type": "BOULDER",
    "difficulty": "V6",
    "latitude": 35.24979,
    "longitude": -85.21884,
    "website": "https://www.mountainproject.com/route/106342577/shotgun",
    "createdAt": "2025-04-01T06:28:06.906Z",
    "updatedAt": "2025-04-01T06:28:06.906Z"
  },
  {
    "id": "b6efa8a8-b0a8-47e1-812e-c5cb3bff2695",
    "name": "Rings of Uranus",
    "type": "BOULDER",
    "difficulty": "V3",
    "latitude": 35.8786,
    "longitude": -93.121,
    "website": "https://www.mountainproject.com/route/106666714/rings-of-uranus",
    "createdAt": "2025-04-01T06:28:09.025Z",
    "updatedAt": "2025-04-01T06:28:09.025Z"
  },
  {
    "id": "6ca9691e-c01b-4fb9-abf9-3db3db62133e",
    "name": "The Chube",
    "type": "BOULDER",
    "difficulty": "V2",
    "latitude": 34.02838,
    "longitude": -116.14524,
    "website": "https://www.mountainproject.com/route/105724441/the-chube",
    "createdAt": "2025-04-01T06:28:10.389Z",
    "updatedAt": "2025-04-01T06:28:10.389Z"
  },
  {
    "id": "a31e4bc3-ee36-4ccf-bae0-f92cc97601d0",
    "name": "Block Party",
    "type": "BOULDER",
    "difficulty": "V5",
    "latitude": 38.65078,
    "longitude": -109.48395,
    "website": "https://www.mountainproject.com/route/106960646/block-party",
    "createdAt": "2025-04-01T06:28:12.309Z",
    "updatedAt": "2025-04-01T06:28:12.309Z"
  },
  {
    "id": "7d09ebb1-a669-4ee6-87cd-1ee9cdbba1cb",
    "name": "Spiral Traverse",
    "type": "BOULDER",
    "difficulty": "V1",
    "latitude": 34.27029,
    "longitude": -118.60303,
    "website": "https://www.mountainproject.com/route/105955307/spiral-traverse",
    "createdAt": "2025-04-01T06:28:15.042Z",
    "updatedAt": "2025-04-01T06:28:15.042Z"
  },
  {
    "id": "b251b2d1-b0c8-4d00-b4ee-3d1bf330655a",
    "name": "The Red Sea",
    "type": "BOULDER",
    "difficulty": "V6",
    "latitude": 37.61327,
    "longitude": -89.41019,
    "website": "https://www.mountainproject.com/route/110027897/the-red-sea",
    "createdAt": "2025-04-01T06:28:17.425Z",
    "updatedAt": "2025-04-01T06:28:17.425Z"
  },
  {
    "id": "1689297a-ca6e-4d4b-a53e-1d96231640b2",
    "name": "Hemlock Arete",
    "type": "BOULDER",
    "difficulty": "V4",
    "latitude": 36.10533,
    "longitude": -84.72294,
    "website": "https://www.mountainproject.com/route/108549027/hemlock-arete",
    "createdAt": "2025-04-01T06:28:19.100Z",
    "updatedAt": "2025-04-01T06:28:19.100Z"
  },
  {
    "id": "00ae9d6d-05e8-41b9-aba8-17f0104b646f",
    "name": "Indian Rock Traverse",
    "type": "BOULDER",
    "difficulty": "5.12b",
    "latitude": 37.89211,
    "longitude": -122.2732,
    "website": "https://www.mountainproject.com/route/105735092/indian-rock-traverse",
    "createdAt": "2025-04-01T06:28:20.339Z",
    "updatedAt": "2025-04-01T06:28:20.339Z"
  },
  {
    "id": "280e508c-191e-45e4-82f9-a33299d6fd69",
    "name": "Monkey Bar Direct",
    "type": "BOULDER",
    "difficulty": "V8",
    "latitude": 36.16154,
    "longitude": -115.41099,
    "website": "https://www.mountainproject.com/route/107378329/monkey-bar-direct",
    "createdAt": "2025-04-01T06:28:22.360Z",
    "updatedAt": "2025-04-01T06:28:22.360Z"
  },
  {
    "id": "2d288097-0e61-4ae7-ad9d-db29c78a87ba",
    "name": "Warm Up Roof",
    "type": "BOULDER",
    "difficulty": "V4",
    "latitude": 31.91964,
    "longitude": -106.03994,
    "website": "https://www.mountainproject.com/route/105812893/warm-up-roof",
    "createdAt": "2025-04-01T06:28:25.665Z",
    "updatedAt": "2025-04-01T06:28:25.665Z"
  },
  {
    "id": "e5f14307-9af0-4466-961f-bfada77344bf",
    "name": "The Vulgarian",
    "type": "BOULDER",
    "difficulty": "V2",
    "latitude": 31.9108,
    "longitude": -106.0372,
    "website": "https://www.mountainproject.com/route/106101183/the-vulgarian",
    "createdAt": "2025-04-01T06:28:27.696Z",
    "updatedAt": "2025-04-01T06:28:27.696Z"
  },
  {
    "id": "7c73690d-9893-438f-a3b1-94c5e40da9c3",
    "name": "Bubble Butt",
    "type": "BOULDER",
    "difficulty": "V7",
    "latitude": 36.15985,
    "longitude": -115.41568,
    "website": "https://www.mountainproject.com/route/106799344/bubble-butt",
    "createdAt": "2025-04-01T06:28:29.078Z",
    "updatedAt": "2025-04-01T06:28:29.078Z"
  },
  {
    "id": "0472f4fa-82db-4201-9db9-8e1231dcbbf9",
    "name": "Easy in an Easy Chair",
    "type": "BOULDER",
    "difficulty": "V4",
    "latitude": 49.68354,
    "longitude": -123.15103,
    "website": "https://www.mountainproject.com/route/106028730/easy-in-an-easy-chair",
    "createdAt": "2025-04-01T06:28:32.215Z",
    "updatedAt": "2025-04-01T06:28:32.215Z"
  },
  {
    "id": "41992dd3-fdb9-48cc-a56d-7db4876d506b",
    "name": "The Fridge",
    "type": "BOULDER",
    "difficulty": "V4",
    "latitude": 37.06292,
    "longitude": -113.63082,
    "website": "https://www.mountainproject.com/route/114014069/the-fridge",
    "createdAt": "2025-04-01T06:28:34.036Z",
    "updatedAt": "2025-04-01T06:28:34.036Z"
  },
  {
    "id": "568ed76d-75bc-41ee-86dc-ff2576e72d17",
    "name": "Bowling Pin Sit",
    "type": "BOULDER",
    "difficulty": "V6-",
    "latitude": 37.32959,
    "longitude": -118.5772,
    "website": "https://www.mountainproject.com/route/107419834/bowling-pin-sit",
    "createdAt": "2025-04-01T06:28:35.873Z",
    "updatedAt": "2025-04-01T06:28:35.873Z"
  },
  {
    "id": "5c2f98b7-651c-4e5d-97f8-674497171461",
    "name": "Heart of Glass",
    "type": "BOULDER",
    "difficulty": "V4+",
    "latitude": 41.8986,
    "longitude": -71.4351,
    "website": "https://www.mountainproject.com/route/106729777/heart-of-glass",
    "createdAt": "2025-04-01T06:28:37.481Z",
    "updatedAt": "2025-04-01T06:28:37.481Z"
  },
  {
    "id": "f1f3db48-9930-4f85-97c2-2cc68b1615b3",
    "name": "Swingers",
    "type": "BOULDER",
    "difficulty": "V3-4",
    "latitude": 35.24895,
    "longitude": -85.22077,
    "website": "https://www.mountainproject.com/route/106981186/swingers",
    "createdAt": "2025-04-01T06:28:38.961Z",
    "updatedAt": "2025-04-01T06:28:38.961Z"
  },
  {
    "id": "9f6320b8-70d3-4442-91b0-9fa4d02834c0",
    "name": "The Pursuit of Wow",
    "type": "BOULDER",
    "difficulty": "V0",
    "latitude": 37.41587,
    "longitude": -118.44899,
    "website": "https://www.mountainproject.com/route/106273867/the-pursuit-of-wow",
    "createdAt": "2025-04-01T06:28:40.537Z",
    "updatedAt": "2025-04-01T06:28:40.537Z"
  },
  {
    "id": "7a713107-c41c-4fba-93a7-1e91a65a0892",
    "name": "P.Stachio",
    "type": "BOULDER",
    "difficulty": "V4",
    "latitude": 43.42135,
    "longitude": -89.73618,
    "website": "https://www.mountainproject.com/route/106836673/pstachio",
    "createdAt": "2025-04-01T06:28:42.321Z",
    "updatedAt": "2025-04-01T06:28:42.321Z"
  },
  {
    "id": "de531d59-dc03-4384-8957-2ca99654b14a",
    "name": "The Fang",
    "type": "BOULDER",
    "difficulty": "V4",
    "latitude": 37.4217,
    "longitude": -118.43332,
    "website": "https://www.mountainproject.com/route/106731640/the-fang",
    "createdAt": "2025-04-01T06:28:44.907Z",
    "updatedAt": "2025-04-01T06:28:44.907Z"
  },
  {
    "id": "7be3ab37-6637-4dd5-afb0-16cf06b3b760",
    "name": "The Spider",
    "type": "BOULDER",
    "difficulty": "V3",
    "latitude": 37.06494,
    "longitude": -113.63155,
    "website": "https://www.mountainproject.com/route/112482800/the-spider",
    "createdAt": "2025-04-01T06:28:46.491Z",
    "updatedAt": "2025-04-01T06:28:46.491Z"
  },
  {
    "id": "e4b5b3ac-a215-4e5c-a373-2d741168c8f6",
    "name": "Sunshine Day Dream",
    "type": "BOULDER",
    "difficulty": "V7-",
    "latitude": 39.27583,
    "longitude": -111.22354,
    "website": "https://www.mountainproject.com/route/108742433/sunshine-day-dream",
    "createdAt": "2025-04-01T06:28:47.605Z",
    "updatedAt": "2025-04-01T06:28:47.605Z"
  },
  {
    "id": "2d786667-3168-4f2e-9243-a0573a6388bf",
    "name": "The Crescent",
    "type": "BOULDER",
    "difficulty": "V3",
    "latitude": 36.00594,
    "longitude": -93.28674,
    "website": "https://www.mountainproject.com/route/107285990/the-crescent",
    "createdAt": "2025-04-01T06:28:49.459Z",
    "updatedAt": "2025-04-01T06:28:49.459Z"
  },
  {
    "id": "8dc32ec1-9f61-498e-b9f0-780a995cca9c",
    "name": "Monkey Bar Right",
    "type": "BOULDER",
    "difficulty": "V6",
    "latitude": 36.16154,
    "longitude": -115.41099,
    "website": "https://www.mountainproject.com/route/106683440/monkey-bar-right",
    "createdAt": "2025-04-01T06:28:50.544Z",
    "updatedAt": "2025-04-01T06:28:50.544Z"
  },
  {
    "id": "f9244734-81e1-4f2c-adfe-90d248afa4ab",
    "name": "Helicopter",
    "type": "BOULDER",
    "difficulty": "V6",
    "latitude": 39.65276,
    "longitude": -105.18641,
    "website": "https://www.mountainproject.com/route/105750883/helicopter",
    "createdAt": "2025-04-01T06:28:53.944Z",
    "updatedAt": "2025-04-01T06:28:53.944Z"
  },
  {
    "id": "9add60ce-41ea-4963-aa75-77956b2f9337",
    "name": "Classic Warm Up",
    "type": "BOULDER",
    "difficulty": "V1",
    "latitude": 43.4,
    "longitude": -89.74329,
    "website": "https://www.mountainproject.com/route/106486247/classic-warm-up",
    "createdAt": "2025-04-01T06:28:56.500Z",
    "updatedAt": "2025-04-01T06:28:56.500Z"
  },
  {
    "id": "395ecda1-e4b6-4b2f-b446-4d0d8a356ae3",
    "name": "Compression Matters",
    "type": "BOULDER",
    "difficulty": "V7",
    "latitude": 39.63235,
    "longitude": -105.7094,
    "website": "https://www.mountainproject.com/route/111946283/compression-matters",
    "createdAt": "2025-04-01T06:28:58.512Z",
    "updatedAt": "2025-04-01T06:28:58.512Z"
  },
  {
    "id": "81c63af0-5a01-4ea7-bd31-5fb7b0cade1b",
    "name": "Trad Killer",
    "type": "BOULDER",
    "difficulty": "V4",
    "latitude": 49.68263,
    "longitude": -123.15031,
    "website": "https://www.mountainproject.com/route/111594749/trad-killer",
    "createdAt": "2025-04-01T06:29:01.310Z",
    "updatedAt": "2025-04-01T06:29:01.310Z"
  },
  {
    "id": "ff1309f8-b01f-4c54-b529-d1305f94b31c",
    "name": "Right Eliminator Prow",
    "type": "BOULDER",
    "difficulty": "V4",
    "latitude": 40.566,
    "longitude": -105.1556,
    "website": "https://www.mountainproject.com/route/105751216/right-eliminator-prow",
    "createdAt": "2025-04-01T06:29:03.289Z",
    "updatedAt": "2025-04-01T06:29:03.289Z"
  },
  {
    "id": "d79dbbe3-25d3-435a-8e8e-fc7f1bfb1947",
    "name": "The Hourglass",
    "type": "BOULDER",
    "difficulty": "V6",
    "latitude": 47.57018,
    "longitude": -120.78803,
    "website": "https://www.mountainproject.com/route/106582081/the-hourglass",
    "createdAt": "2025-04-01T06:29:04.533Z",
    "updatedAt": "2025-04-01T06:29:04.533Z"
  },
  {
    "id": "887c16c8-502f-4541-8fbd-bb12cda45596",
    "name": "Molly",
    "type": "BOULDER",
    "difficulty": "V5",
    "latitude": 37.42075,
    "longitude": -118.43391,
    "website": "https://www.mountainproject.com/route/106094747/molly",
    "createdAt": "2025-04-01T06:29:06.017Z",
    "updatedAt": "2025-04-01T06:29:06.017Z"
  },
  {
    "id": "59df6d15-c5b9-4f2e-a7a9-571d19fd9ec1",
    "name": "The Scoop",
    "type": "BOULDER",
    "difficulty": "V3",
    "latitude": 34.65028,
    "longitude": -85.39241,
    "website": "https://www.mountainproject.com/route/106036764/the-scoop",
    "createdAt": "2025-04-01T06:29:08.731Z",
    "updatedAt": "2025-04-01T06:29:08.731Z"
  },
  {
    "id": "2a82b31b-a9b9-4e26-8ef3-8f974c01fc14",
    "name": "The Crack",
    "type": "BOULDER",
    "difficulty": "V3-4",
    "latitude": 34.2692,
    "longitude": -118.6036,
    "website": "https://www.mountainproject.com/route/105982694/the-crack",
    "createdAt": "2025-04-01T06:29:10.893Z",
    "updatedAt": "2025-04-01T06:29:10.893Z"
  },
  {
    "id": "d3ae837a-7802-4830-921f-02ed490fc771",
    "name": "Latin for Daggers",
    "type": "BOULDER",
    "difficulty": "V5",
    "latitude": 35.25051,
    "longitude": -85.21757,
    "website": "https://www.mountainproject.com/route/106342585/latin-for-daggers",
    "createdAt": "2025-04-01T06:29:13.057Z",
    "updatedAt": "2025-04-01T06:29:13.057Z"
  },
  {
    "id": "f9d03ae5-1261-494b-859b-ddbead325c04",
    "name": "Jaws",
    "type": "BOULDER",
    "difficulty": "5.11a",
    "latitude": 33.00579,
    "longitude": -116.96748,
    "website": "https://www.mountainproject.com/route/105791650/jaws",
    "createdAt": "2025-04-01T06:29:15.702Z",
    "updatedAt": "2025-04-01T06:29:15.702Z"
  },
  {
    "id": "13e5f40d-2b67-4034-8f50-970fc04e69d2",
    "name": "Red House",
    "type": "BOULDER",
    "difficulty": "V7",
    "latitude": 35.25075,
    "longitude": -85.21694,
    "website": "https://www.mountainproject.com/route/107340143/red-house",
    "createdAt": "2025-04-01T06:29:16.382Z",
    "updatedAt": "2025-04-01T06:29:16.382Z"
  },
  {
    "id": "7f4641e1-1d6d-459d-bdc6-07b4de071456",
    "name": "Yellow Wall Arete",
    "type": "BOULDER",
    "difficulty": "V4",
    "latitude": 33.71879,
    "longitude": -84.56434,
    "website": "https://www.mountainproject.com/route/106080999/yellow-wall-arete",
    "createdAt": "2025-04-01T06:29:18.581Z",
    "updatedAt": "2025-04-01T06:29:18.581Z"
  },
  {
    "id": "2234758e-8a6d-462d-9426-225e52c6ffa2",
    "name": "The Wave",
    "type": "BOULDER",
    "difficulty": "V2",
    "latitude": 41.8959,
    "longitude": -71.4337,
    "website": "https://www.mountainproject.com/route/106731165/the-wave",
    "createdAt": "2025-04-01T06:29:21.028Z",
    "updatedAt": "2025-04-01T06:29:21.028Z"
  },
  {
    "id": "55f5aab2-b24a-48e7-bdab-ec503debb052",
    "name": "The Gill Egg (AKA Gill's Ro…",
    "type": "BOULDER",
    "difficulty": "V4",
    "latitude": 41.7364,
    "longitude": -74.1909,
    "website": "https://www.mountainproject.com/route/106515375/the-gill-egg-aka-gills-route",
    "createdAt": "2025-04-01T06:29:22.525Z",
    "updatedAt": "2025-04-01T06:29:22.525Z"
  },
  {
    "id": "60b59bbc-4647-4be8-a2ec-18069f94eafd",
    "name": "Crack of Doom",
    "type": "BOULDER",
    "difficulty": "5.10c",
    "latitude": 35.2499,
    "longitude": -85.21807,
    "website": "https://www.mountainproject.com/route/106031940/crack-of-doom",
    "createdAt": "2025-04-01T06:29:24.196Z",
    "updatedAt": "2025-04-01T06:29:24.196Z"
  },
  {
    "id": "c7e7967d-aa29-4fec-9781-6d404a89ef98",
    "name": "The Rose (of Confrontation)",
    "type": "BOULDER",
    "difficulty": "V7",
    "latitude": 43.10843,
    "longitude": -71.15305,
    "website": "https://www.mountainproject.com/route/106009371/the-rose-of-confrontation",
    "createdAt": "2025-04-01T06:29:27.131Z",
    "updatedAt": "2025-04-01T06:29:27.131Z"
  },
  {
    "id": "44baf253-de82-4d12-b830-b1c9aca53d67",
    "name": "Atlas",
    "type": "BOULDER",
    "difficulty": "V4",
    "latitude": 37.61452,
    "longitude": -89.40935,
    "website": "https://www.mountainproject.com/route/110027723/atlas",
    "createdAt": "2025-04-01T06:29:29.312Z",
    "updatedAt": "2025-04-01T06:29:29.312Z"
  },
  {
    "id": "77b33d9b-0510-4434-ae42-ccdc12520d4d",
    "name": "Green Wall Center",
    "type": "BOULDER",
    "difficulty": "V6",
    "latitude": 37.32873,
    "longitude": -118.57534,
    "website": "https://www.mountainproject.com/route/106375359/green-wall-center",
    "createdAt": "2025-04-01T06:29:31.240Z",
    "updatedAt": "2025-04-01T06:29:31.240Z"
  },
  {
    "id": "d2fcccc6-fa92-41d2-b795-2f489628a6a8",
    "name": "Bowling Ball",
    "type": "BOULDER",
    "difficulty": "V4",
    "latitude": 39.30718,
    "longitude": -111.18428,
    "website": "https://www.mountainproject.com/route/105904242/bowling-ball",
    "createdAt": "2025-04-01T06:29:33.956Z",
    "updatedAt": "2025-04-01T06:29:33.956Z"
  },
  {
    "id": "20fa32bd-c091-4df4-b12b-8816d763e4a0",
    "name": "Pocket Rocket",
    "type": "BOULDER",
    "difficulty": "V6-",
    "latitude": 39.30712,
    "longitude": -111.11441,
    "website": "https://www.mountainproject.com/route/105880701/pocket-rocket",
    "createdAt": "2025-04-01T06:29:36.409Z",
    "updatedAt": "2025-04-01T06:29:36.409Z"
  },
  {
    "id": "5a517455-3cef-4f88-b88b-50e344d9e840",
    "name": "Buoux Crack",
    "type": "BOULDER",
    "difficulty": "V1",
    "latitude": 39.30718,
    "longitude": -111.18428,
    "website": "https://www.mountainproject.com/route/106402469/buoux-crack",
    "createdAt": "2025-04-01T06:29:38.113Z",
    "updatedAt": "2025-04-01T06:29:38.113Z"
  },
  {
    "id": "fd4bd805-6bae-4400-bb09-2af03f63cd33",
    "name": "Warm-Up Arete",
    "type": "BOULDER",
    "difficulty": "V3",
    "latitude": 39.63356,
    "longitude": -105.70929,
    "website": "https://www.mountainproject.com/route/113384340/warm-up-arete",
    "createdAt": "2025-04-01T06:29:40.013Z",
    "updatedAt": "2025-04-01T06:29:40.013Z"
  },
  {
    "id": "be4e90a0-40bc-4d3e-832b-5be8d5db304e",
    "name": "Kor Problem",
    "type": "BOULDER",
    "difficulty": "V3",
    "latitude": 37.74287,
    "longitude": -119.60284,
    "website": "https://www.mountainproject.com/route/107360640/kor-problem",
    "createdAt": "2025-04-01T06:29:42.486Z",
    "updatedAt": "2025-04-01T06:29:42.486Z"
  },
  {
    "id": "52951422-84d1-4759-9f25-89f51e936f96",
    "name": "Ripple",
    "type": "BOULDER",
    "difficulty": "V2",
    "latitude": 34.64924,
    "longitude": -85.39164,
    "website": "https://www.mountainproject.com/route/107950314/ripple",
    "createdAt": "2025-04-01T06:29:44.299Z",
    "updatedAt": "2025-04-01T06:29:44.299Z"
  },
  {
    "id": "ec7aa262-ce98-457a-86c8-698dfa9fdf10",
    "name": "Don't Leave Too Soon",
    "type": "BOULDER",
    "difficulty": "V3",
    "latitude": 39.27864,
    "longitude": -111.22785,
    "website": "https://www.mountainproject.com/route/107610002/dont-leave-too-soon",
    "createdAt": "2025-04-01T06:29:46.727Z",
    "updatedAt": "2025-04-01T06:29:46.727Z"
  },
  {
    "id": "79eff571-0dce-427f-8165-e5930fc17b67",
    "name": "Robinson's Rubber Tester",
    "type": "BOULDER",
    "difficulty": "V0",
    "latitude": 37.32867,
    "longitude": -118.57681,
    "website": "https://www.mountainproject.com/route/105936126/robinsons-rubber-tester",
    "createdAt": "2025-04-01T06:29:47.891Z",
    "updatedAt": "2025-04-01T06:29:47.891Z"
  },
  {
    "id": "5a327f1d-122e-42ec-a83b-f5f28785b71d",
    "name": "Standard's Variation",
    "type": "BOULDER",
    "difficulty": "V5",
    "latitude": 34.64818,
    "longitude": -85.3919,
    "website": "https://www.mountainproject.com/route/107478537/standards-variation",
    "createdAt": "2025-04-01T06:29:49.499Z",
    "updatedAt": "2025-04-01T06:29:49.499Z"
  },
  {
    "id": "48152b0b-61d1-40ff-9bd8-7773456f1fc0",
    "name": "Cream",
    "type": "BOULDER",
    "difficulty": "V0+",
    "latitude": 43.116,
    "longitude": -71.17689,
    "website": "https://www.mountainproject.com/route/106137609/cream",
    "createdAt": "2025-04-01T06:29:51.584Z",
    "updatedAt": "2025-04-01T06:29:51.584Z"
  },
  {
    "id": "385bd2be-59a3-4301-90f6-15f5799042f4",
    "name": "Gritstone Arete",
    "type": "BOULDER",
    "difficulty": "V3",
    "latitude": 34.65246,
    "longitude": -85.39086,
    "website": "https://www.mountainproject.com/route/109614067/gritstone-arete",
    "createdAt": "2025-04-01T06:29:54.040Z",
    "updatedAt": "2025-04-01T06:29:54.040Z"
  },
  {
    "id": "9b227fd5-d669-4313-bf26-29cfb58a4bdb",
    "name": "First Overhang",
    "type": "BOULDER",
    "difficulty": "V6",
    "latitude": 40.00345,
    "longitude": -105.29851,
    "website": "https://www.mountainproject.com/route/105759564/first-overhang",
    "createdAt": "2025-04-01T06:29:56.737Z",
    "updatedAt": "2025-04-01T06:29:56.737Z"
  },
  {
    "id": "9648e940-c49d-4d5d-954e-4d3e855c7977",
    "name": "Tristar",
    "type": "BOULDER",
    "difficulty": "V4",
    "latitude": 35.25038,
    "longitude": -85.21762,
    "website": "https://www.mountainproject.com/route/106071696/tristar",
    "createdAt": "2025-04-01T06:29:58.394Z",
    "updatedAt": "2025-04-01T06:29:58.394Z"
  },
  {
    "id": "48b676ff-4ab9-4ee2-984f-1938745a7046",
    "name": "Riverside Arete",
    "type": "BOULDER",
    "difficulty": "V3",
    "latitude": 40.57134,
    "longitude": -111.75712,
    "website": "https://www.mountainproject.com/route/107243764/riverside-arete",
    "createdAt": "2025-04-01T06:30:00.276Z",
    "updatedAt": "2025-04-01T06:30:00.276Z"
  },
  {
    "id": "2586dfb4-c693-4462-8d03-f9070d79fdce",
    "name": "Tour de France (aka Firewall)",
    "type": "BOULDER",
    "difficulty": "V7",
    "latitude": 33.82746,
    "longitude": -116.75896,
    "website": "https://www.mountainproject.com/route/109090499/tour-de-france-aka-firewall",
    "createdAt": "2025-04-01T06:30:02.678Z",
    "updatedAt": "2025-04-01T06:30:02.678Z"
  },
  {
    "id": "c5ac9d4d-4742-428f-b9cf-e6c0f2f57dc6",
    "name": "The Round Room",
    "type": "BOULDER",
    "difficulty": "V6-",
    "latitude": 40.57192,
    "longitude": -111.75182,
    "website": "https://www.mountainproject.com/route/109593707/the-round-room",
    "createdAt": "2025-04-01T06:30:04.359Z",
    "updatedAt": "2025-04-01T06:30:04.359Z"
  },
  {
    "id": "2c716818-f641-43c4-9de9-2e94535268e1",
    "name": "Periscope",
    "type": "BOULDER",
    "difficulty": "V3",
    "latitude": 36.61245,
    "longitude": -81.48093,
    "website": "https://www.mountainproject.com/route/106566425/periscope",
    "createdAt": "2025-04-01T06:30:06.483Z",
    "updatedAt": "2025-04-01T06:30:06.483Z"
  },
  {
    "id": "3071f605-93aa-4530-a46f-c08ff47f2b48",
    "name": "Cupcake",
    "type": "BOULDER",
    "difficulty": "5.10",
    "latitude": 41.15478,
    "longitude": -105.37467,
    "website": "https://www.mountainproject.com/route/105814053/cupcake",
    "createdAt": "2025-04-01T06:30:08.002Z",
    "updatedAt": "2025-04-01T06:30:08.002Z"
  },
  {
    "id": "3f8020ef-0d6e-4f31-a215-7e1d7fd82cfc",
    "name": "Monkey Dihedral",
    "type": "BOULDER",
    "difficulty": "V2",
    "latitude": 37.32944,
    "longitude": -118.57548,
    "website": "https://www.mountainproject.com/route/106908986/monkey-dihedral",
    "createdAt": "2025-04-01T06:30:09.992Z",
    "updatedAt": "2025-04-01T06:30:09.992Z"
  },
  {
    "id": "c7d99193-0ee0-42c5-91f0-56b37dd1b3c6",
    "name": "Vintage",
    "type": "BOULDER",
    "difficulty": "V4",
    "latitude": 43.11908,
    "longitude": -71.18286,
    "website": "https://www.mountainproject.com/route/106208786/vintage",
    "createdAt": "2025-04-01T06:30:11.531Z",
    "updatedAt": "2025-04-01T06:30:11.531Z"
  },
  {
    "id": "1459eadb-5b8d-478c-b803-7228db725cec",
    "name": "Sunshine (sit)",
    "type": "BOULDER",
    "difficulty": "V5",
    "latitude": 37.89327,
    "longitude": -122.2724,
    "website": "https://www.mountainproject.com/route/106603636/sunshine-sit",
    "createdAt": "2025-04-01T06:30:14.202Z",
    "updatedAt": "2025-04-01T06:30:14.202Z"
  },
  {
    "id": "09ffebf0-b2c9-479f-949c-f90b45a24d14",
    "name": "Device Igniter Left",
    "type": "BOULDER",
    "difficulty": "V6",
    "latitude": 37.0657,
    "longitude": -113.63101,
    "website": "https://www.mountainproject.com/route/107013716/device-igniter-left",
    "createdAt": "2025-04-01T06:30:15.621Z",
    "updatedAt": "2025-04-01T06:30:15.621Z"
  },
  {
    "id": "37a1b737-db4b-4827-9fb9-969889a696b5",
    "name": "Thunder",
    "type": "BOULDER",
    "difficulty": "V3",
    "latitude": 37.30761,
    "longitude": -118.43628,
    "website": "https://www.mountainproject.com/route/106079188/thunder",
    "createdAt": "2025-04-01T06:30:18.359Z",
    "updatedAt": "2025-04-01T06:30:18.359Z"
  },
  {
    "id": "d1ec9054-c5dc-41c0-aa62-93899b231db5",
    "name": "America's Playground",
    "type": "BOULDER",
    "difficulty": "V1-2",
    "latitude": 39.27583,
    "longitude": -111.22354,
    "website": "https://www.mountainproject.com/route/111849832/americas-playground",
    "createdAt": "2025-04-01T06:30:21.039Z",
    "updatedAt": "2025-04-01T06:30:21.039Z"
  },
  {
    "id": "df88ad98-3095-4e50-bfcd-5db4fa630919",
    "name": "Big Overhang",
    "type": "BOULDER",
    "difficulty": "V2",
    "latitude": 40.00321,
    "longitude": -105.29743,
    "website": "https://www.mountainproject.com/route/106148252/big-overhang",
    "createdAt": "2025-04-01T06:30:22.408Z",
    "updatedAt": "2025-04-01T06:30:22.408Z"
  },
  {
    "id": "42d21566-7238-479f-930c-413e8c51119c",
    "name": "Center Visor",
    "type": "BOULDER",
    "difficulty": "V6",
    "latitude": 33.82161,
    "longitude": -116.75728,
    "website": "https://www.mountainproject.com/route/105991718/center-visor",
    "createdAt": "2025-04-01T06:30:24.347Z",
    "updatedAt": "2025-04-01T06:30:24.347Z"
  },
  {
    "id": "d21c00b9-bb6e-4114-8673-d850b524baa9",
    "name": "El Bano",
    "type": "BOULDER",
    "difficulty": "V3",
    "latitude": 34.6502,
    "longitude": -85.39198,
    "website": "https://www.mountainproject.com/route/107793133/el-bano",
    "createdAt": "2025-04-01T06:30:26.271Z",
    "updatedAt": "2025-04-01T06:30:26.271Z"
  },
  {
    "id": "d632ef29-dea9-4e98-8f6f-6d7c0eb980ba",
    "name": "Abash",
    "type": "BOULDER",
    "difficulty": "V3",
    "latitude": 31.1602,
    "longitude": -97.48874,
    "website": "https://www.mountainproject.com/route/106833203/abash",
    "createdAt": "2025-04-01T06:30:28.615Z",
    "updatedAt": "2025-04-01T06:30:28.615Z"
  },
  {
    "id": "ffcae9ae-6eaf-41a4-a4d3-79a0a50d8c02",
    "name": "Self Service",
    "type": "BOULDER",
    "difficulty": "V4",
    "latitude": 39.30661,
    "longitude": -111.11463,
    "website": "https://www.mountainproject.com/route/106016652/self-service",
    "createdAt": "2025-04-01T06:30:29.982Z",
    "updatedAt": "2025-04-01T06:30:29.982Z"
  },
  {
    "id": "c7fadf9a-6c87-4def-8350-316bf73f8e8d",
    "name": "Asphalt or Pythagorean Theorem",
    "type": "BOULDER",
    "difficulty": "V5",
    "latitude": 34.6502,
    "longitude": -85.39198,
    "website": "https://www.mountainproject.com/route/106362171/asphalt-or-pythagorean-theorem",
    "createdAt": "2025-04-01T06:30:32.087Z",
    "updatedAt": "2025-04-01T06:30:32.087Z"
  },
  {
    "id": "91bf2fd6-97d5-46bc-9ea4-cddc01edf72a",
    "name": "White Trash",
    "type": "BOULDER",
    "difficulty": "V5",
    "latitude": 35.25157,
    "longitude": -85.2155,
    "website": "https://www.mountainproject.com/route/107038290/white-trash",
    "createdAt": "2025-04-01T06:30:34.713Z",
    "updatedAt": "2025-04-01T06:30:34.713Z"
  },
  {
    "id": "1f1b3c7d-b2e6-42eb-b8f6-0e76f4f694e0",
    "name": "Peace Dove",
    "type": "BOULDER",
    "difficulty": "V3",
    "latitude": 41.8946,
    "longitude": -71.4301,
    "website": "https://www.mountainproject.com/route/106729910/peace-dove",
    "createdAt": "2025-04-01T06:30:36.633Z",
    "updatedAt": "2025-04-01T06:30:36.633Z"
  },
  {
    "id": "ddc1f48f-a4a9-415e-b2e0-e7c5ce847083",
    "name": "Serengeti",
    "type": "BOULDER",
    "difficulty": "V5",
    "latitude": 37.41844,
    "longitude": -118.45269,
    "website": "https://www.mountainproject.com/route/106052564/serengeti",
    "createdAt": "2025-04-01T06:30:39.253Z",
    "updatedAt": "2025-04-01T06:30:39.253Z"
  },
  {
    "id": "4a38ff9a-d59c-4894-8642-9e73446ad9f8",
    "name": "Standard Overhang",
    "type": "BOULDER",
    "difficulty": "V3",
    "latitude": 40.57195,
    "longitude": -111.75315,
    "website": "https://www.mountainproject.com/route/106052006/standard-overhang",
    "createdAt": "2025-04-01T06:30:40.836Z",
    "updatedAt": "2025-04-01T06:30:40.836Z"
  },